stop_id,stop_code,stop_name,stop_desc,stop_lat,stop_lon,zone_id,stop_url,location_type,wheelchair_boarding,model_node_id,osm_node_id,node_ssid,parent_station
10037,,Fillmore Ave E & Robert St,Far side E,44.941361,-93.084769,,http://www.metrotransit.org/NexTripBadge.aspx?stopnumber=10037,0,1.0,57992,187891416,98e48a4ff360a8833c1f04b975fb8f73,
10039,,Fillmore Ave E & State St,Near side E,44.943261,-93.080287,,http://www.metrotransit.org/NexTripBadge.aspx?stopnumber=10039,0,2.0,46975,187868185,1203d85e0764f1e36a8a598977364db0,
10040,,Fillmore Ave E & Lafayette Rd W,Near side E,44.943613,-93.078382,,http://www.metrotransit.org/NexTripBadge.aspx?stopnumber=10040,0,2.0,57958,187891352,3127e296d73928bc1cec808a7acd6d3a,
10041,,Fillmore Ave E & Lafayette Rd E,Mid block E,44.943831,-93.075466,,http://www.metrotransit.org/NexTripBadge.aspx?stopnumber=10041,0,2.0,53127,187880229,0c017fc146f71e6b5e8fb8ad17e95fd5,
10042,,Fillmore Ave E & Ridder Circle,Near side S,44.94348400000001,-93.073947,,http://www.metrotransit.org/NexTripBadge.aspx?stopnumber=10042,0,2.0,134910,685094533,7d8495c9a972d3a5610639e4765aa0b2,
10044,,Plato Blvd & Chester St,Far side W,44.941021,-93.073295,,http://www.metrotransit.org/NexTripBadge.aspx?stopnumber=10044,0,1.0,75345,652981907,60fb130174d6fe9448d03fec65881fc3,
10045,,Plato Blvd & State St,Near side W,44.939498,-93.077998,,http://www.metrotransit.org/NexTripBadge.aspx?stopnumber=10045,0,1.0,75331,652981874,0191e96771fbdd9bd1ea7384a0f6ce4d,
10046,,Plato Blvd & Eva St,Near side W,44.939186,-93.080285,,http://www.metrotransit.org/NexTripBadge.aspx?stopnumber=10046,0,1.0,75328,652981865,6a77d7a489e09b13192fff19ff715337,
10048,,Cesar Chavez St & Ada St,Across from E,44.929481,-93.076961,,http://www.metrotransit.org/NexTripBadge.aspx?stopnumber=10048,0,1.0,73016,187931000,76337cafa350f64fe6d48d50cea4722e,
10050,,Cesar Chavez St & Bancroft Ave,Across from S,44.928429,-93.073356,,http://www.metrotransit.org/NexTripBadge.aspx?stopnumber=10050,0,1.0,50291,187874284,19f4dd39177ae8afa146824d7a990775,
10052,,Concord St & Kansas St,Near side S,44.926024,-93.067108,,http://www.metrotransit.org/NexTripBadge.aspx?stopnumber=10052,0,1.0,73017,187931004,c2266fb1f2ce8b9bd25a72f20bc1c522,
10053,,Concord St & Page St,Near side S,44.924903,-93.065249,,http://www.metrotransit.org/NexTripBadge.aspx?stopnumber=10053,0,1.0,46298,187866939,31e054fa445581e57becad32e5de0fad,
10054,,Concord St & Curtice St,Near side S,44.923123,-93.0633,,http://www.metrotransit.org/NexTripBadge.aspx?stopnumber=10054,0,1.0,59324,187893988,64d877804081c50be190c4f65e8018a1,
10055,,Concord St & Belvidere St,Near side S,44.922216,-93.062561,,http://www.metrotransit.org/NexTripBadge.aspx?stopnumber=10055,0,1.0,65468,187908293,e9e9e01dc9fe25f53f56c98c638c4bc5,
10057,,Concord St & Annapolis St,Near side S,44.91961,-93.05984,,http://www.metrotransit.org/NexTripBadge.aspx?stopnumber=10057,0,2.0,50577,653442637,96bd7ed9c3346b9f3decf961a3d40540,
10119,,St Clair Ave & Stairs to Grotto,Near side W,44.934173,-93.13119,,http://www.metrotransit.org/NexTripBadge.aspx?stopnumber=10119,0,1.0,46899,187868023,07f1596b517308ee953cec39152f04e3,
10120,,St Clair Ave & Avon St,Near side W,44.934178,-93.13369,,http://www.metrotransit.org/NexTripBadge.aspx?stopnumber=10120,0,1.0,54358,187883263,fb83b4f2cd360907befedfaf61081ef2,
10121,,St Clair Ave & Victoria St,Near side W,44.934186,-93.136243,,http://www.metrotransit.org/NexTripBadge.aspx?stopnumber=10121,0,1.0,43004,187860779,c16292a1f8165c26b71f2743189b7a49,
10123,,St Clair Ave & Milton St,Near side W,44.93421,-93.138773,,http://www.metrotransit.org/NexTripBadge.aspx?stopnumber=10123,0,1.0,57392,187890295,0d925f0cc31c709d353bb67896bb41b1,
10124,,St Clair Ave & Chatsworth St,Near side W,44.934218,-93.141323,,http://www.metrotransit.org/NexTripBadge.aspx?stopnumber=10124,0,1.0,56476,187888280,802a524d27965017ae195d972fe92927,
10126,,St Clair Ave & Oxford St,Near side W,44.934215,-93.143884,,http://www.metrotransit.org/NexTripBadge.aspx?stopnumber=10126,0,1.0,74731,187936294,e253d08af7eac74b6650133252908472,
10172,,St Clair Ave & Benhill Rd,Near side E,44.934106,-93.143053,,http://www.metrotransit.org/NexTripBadge.aspx?stopnumber=10172,0,1.0,74730,187936293,192efcdf1e3bf6912303adcba9c18bbb,
10174,,St Clair Ave & Milton St,Near side E,44.934106,-93.139055,,http://www.metrotransit.org/NexTripBadge.aspx?stopnumber=10174,0,1.0,57392,187890295,0d925f0cc31c709d353bb67896bb41b1,
10176,,St Clair Ave & Victoria St,Across from E,44.93408400000001,-93.136517,,http://www.metrotransit.org/NexTripBadge.aspx?stopnumber=10176,0,1.0,137734,3071141453,49e0f73c301f745ec9dc36a5b752a32e,
10177,,St Clair Ave & Avon St,Across from E,44.934073,-93.133944,,http://www.metrotransit.org/NexTripBadge.aspx?stopnumber=10177,0,1.0,54358,187883263,fb83b4f2cd360907befedfaf61081ef2,
10178,,St Clair Ave & Stairs to Grotto,Across from E,44.934068,-93.131333,,http://www.metrotransit.org/NexTripBadge.aspx?stopnumber=10178,0,1.0,46899,187868023,07f1596b517308ee953cec39152f04e3,
10180,,St Clair Ave & Pleasant Ave,Mid block W,44.934172,-93.12911,,http://www.metrotransit.org/NexTripBadge.aspx?stopnumber=10180,0,1.0,58399,187892085,fb83b4f2cd360907befedfaf61081ef2,
10186,,St Clair Ave & Osceola Ave,Far side E,44.934075,-93.125442,,http://www.metrotransit.org/NexTripBadge.aspx?stopnumber=10186,0,1.0,37734,187851038,e51c48c067739bf73b704c789b2cf17c,
10187,,St Clair Ave & Oneida St,Near side E,44.934077,-93.123356,,http://www.metrotransit.org/NexTripBadge.aspx?stopnumber=10187,0,1.0,55799,187887085,51b26139d917f0b3db3bc10314c478cb,
10189,,St Clair Ave & Duke St,Near side E,44.934082,-93.120927,,http://www.metrotransit.org/NexTripBadge.aspx?stopnumber=10189,0,1.0,70537,187922596,e1d3d9fb42b1699c91db1db376354420,
10190,,St Clair Ave & Colborne St,Near side E,44.934081,-93.119721,,http://www.metrotransit.org/NexTripBadge.aspx?stopnumber=10190,0,1.0,44062,187862796,0b23d0ff5c8268e611df46a1cc118c47,
10191,,St Clair Ave & 7th St W,Near side E,44.93408,-93.117497,,http://www.metrotransit.org/NexTripBadge.aspx?stopnumber=10191,0,1.0,68940,187918029,89bfcd4ff66256d460430e35ee343869,
10193,,St Clair Ave & Colborne St,Near side W,44.934183,-93.119683,,http://www.metrotransit.org/NexTripBadge.aspx?stopnumber=10193,0,1.0,44064,187862803,1cf7cd46362a583d65e6f4a75df06c72,
10194,,St Clair Ave & Duke St,Near side W,44.934187,-93.120954,,http://www.metrotransit.org/NexTripBadge.aspx?stopnumber=10194,0,1.0,70541,187922605,a8d5bd96c352605ac94017c83822f64f,
10196,,St Clair Ave & Oneida St,Near side W,44.934182,-93.123074,,http://www.metrotransit.org/NexTripBadge.aspx?stopnumber=10196,0,1.0,55799,187887085,51b26139d917f0b3db3bc10314c478cb,
10197,,St Clair Ave & Osceola Ave,Near side W,44.934179,-93.125566,,http://www.metrotransit.org/NexTripBadge.aspx?stopnumber=10197,0,1.0,37734,187851038,e51c48c067739bf73b704c789b2cf17c,
10231,,7th St W & Ann St,Near side N,44.936092,-93.114259,,http://www.metrotransit.org/NexTripBadge.aspx?stopnumber=10231,0,1.0,68932,187917979,eb19bf2a14cb331c38d9de80dbf3a3df,
10232,,7th St W & Dousman St,Near side N,44.9372,-93.112662,,http://www.metrotransit.org/NexTripBadge.aspx?stopnumber=10232,0,1.0,52543,187879009,a98a3c63c2cbdd3fe4b7bb468b241998,
10234,,7th St W & Smith Ave,Near side N,44.939335,-93.109518,,http://www.metrotransit.org/NexTripBadge.aspx?stopnumber=10234,0,1.0,57601,187890778,9ec51322e21a696313930cd7153d64e4,
10236,,7th St W & Grand Ave,Far side N,44.941497,-93.10635,,http://www.metrotransit.org/NexTripBadge.aspx?stopnumber=10236,0,1.0,68929,187917971,f72fd3201bdf246b6d8acaa47d9bcb65,
10238,,7th St W & Chestnut St,Near side N,44.943285,-93.104086,,http://www.metrotransit.org/NexTripBadge.aspx?stopnumber=10238,0,1.0,53517,187880954,281e60942d8d12f665d1ae835ea6658f,
10358,,7th St W & Walnut St,Near side S,44.942659,-93.105186,,http://www.metrotransit.org/NexTripBadge.aspx?stopnumber=10358,0,1.0,66953,187912474,281e60942d8d12f665d1ae835ea6658f,
10359,,7th St W & Grand Ave,Near side S,44.941392,-93.106818,,http://www.metrotransit.org/NexTripBadge.aspx?stopnumber=10359,0,1.0,52618,187879146,ad18dd49bf64931f41d0eebbbb149a35,
10361,,7th St W & Smith Ave,Near side S,44.939736,-93.109252,,http://www.metrotransit.org/NexTripBadge.aspx?stopnumber=10361,0,1.0,57601,187890778,9ec51322e21a696313930cd7153d64e4,
10363,,7th St W & Dousman St,Near side S,44.937611,-93.112404,,http://www.metrotransit.org/NexTripBadge.aspx?stopnumber=10363,0,1.0,52542,187879008,48319024ddc14a1cb86c55a2d9199ae7,
10364,,7th St W & Goodhue St,Near side S,44.936416,-93.114109,,http://www.metrotransit.org/NexTripBadge.aspx?stopnumber=10364,0,1.0,68932,187917979,eb19bf2a14cb331c38d9de80dbf3a3df,
10366,,7th St W & St Clair Ave,Near side S,44.934218,-93.117369,,http://www.metrotransit.org/NexTripBadge.aspx?stopnumber=10366,0,1.0,68940,187918029,89bfcd4ff66256d460430e35ee343869,
10467,,Rice St & Cottage Ave,Far side S,44.982646,-93.105962,,http://www.metrotransit.org/NexTripBadge.aspx?stopnumber=10467,0,1.0,71838,187926851,397fafb29a64c60653046faad3cfda26,
10468,,Rice St & Ivy Ave,Near side S,44.981077,-93.105967,,http://www.metrotransit.org/NexTripBadge.aspx?stopnumber=10468,0,1.0,44480,187863636,a9d5355847bd47b27aac94ecdccf9cb3,
10470,,Rice St & Orange Ave,Near side S,44.979269,-93.105979,,http://www.metrotransit.org/NexTripBadge.aspx?stopnumber=10470,0,1.0,68478,187916437,3444de0e1a7001c7175ad7a95e628a3b,
10471,,Rice St & Maryland Ave,Near side S,44.977474,-93.105995,,http://www.metrotransit.org/NexTripBadge.aspx?stopnumber=10471,0,1.0,49783,187873496,e19009e992d3a7f506a7df530316ce06,
10473,,Rice St & Geranium Ave,Near side S,44.975737,-93.106008,,http://www.metrotransit.org/NexTripBadge.aspx?stopnumber=10473,0,1.0,57799,187891077,7dc73d8eaeff5dbe839148ed630d26b6,
10474,,Rice St & Jessamine Ave,Near side S,44.974522,-93.106013,,http://www.metrotransit.org/NexTripBadge.aspx?stopnumber=10474,0,1.0,76998,187942128,37f36bd79fe7e0f1294ebcc6f030eb78,
10476,,Rice St & Lawson Ave,Near side S,44.972118,-93.106028,,http://www.metrotransit.org/NexTripBadge.aspx?stopnumber=10476,0,1.0,42821,187860463,5c7215418b66e71deec76c3936bb1ec3,
10479,,Rice St & Litchfield St,Across from S,44.969605,-93.106039,,http://www.metrotransit.org/NexTripBadge.aspx?stopnumber=10479,0,1.0,77776,187944058,2278de3fefe6a6857d4e03cd51bdfbe6,
10480,,Rice St & Milford St,Near side S,44.967901,-93.10602,,http://www.metrotransit.org/NexTripBadge.aspx?stopnumber=10480,0,1.0,71140,187924470,0df0381be248860f656c6b6232a506b7,
10481,,Rice St & Atwater St,Near side S,44.966705,-93.106014,,http://www.metrotransit.org/NexTripBadge.aspx?stopnumber=10481,0,1.0,72221,187927985,5def7ab94e0559960f619d008fd868fc,
10482,,Rice St & Sycamore St,Near side S,44.96491,-93.105999,,http://www.metrotransit.org/NexTripBadge.aspx?stopnumber=10482,0,1.0,78332,187945180,2be9e851da1193cddc443007673bae6d,
10483,,Rice St & Pennsylvania Ave,Near side S,44.960507,-93.106018,,http://www.metrotransit.org/NexTripBadge.aspx?stopnumber=10483,0,1.0,57528,187890613,ca9d1e9dba2c0e666c06c6b95465ca33,
10484,,Rice St & Como Ave,Near side S,44.959091,-93.106016,,http://www.metrotransit.org/NexTripBadge.aspx?stopnumber=10484,0,1.0,82056,187953343,6cc2469729fa8734335e9053ab9ba811,
10488,,Rice St & Charles Ave,Near side N,44.957812,-93.10587,,http://www.metrotransit.org/NexTripBadge.aspx?stopnumber=10488,0,1.0,78323,187945166,71b7de84c0480eb1d8f1a4f5edd4fc26,
10489,,Rice St & Como Ave,Near side N,44.958863,-93.105868,,http://www.metrotransit.org/NexTripBadge.aspx?stopnumber=10489,0,1.0,82056,187953343,6cc2469729fa8734335e9053ab9ba811,
10490,,Rice St & Pennsylvania Ave,Far side N,44.960636,-93.105872,,http://www.metrotransit.org/NexTripBadge.aspx?stopnumber=10490,0,1.0,57528,187890613,ca9d1e9dba2c0e666c06c6b95465ca33,
10491,,Rice St & Sycamore St,Near side N,44.964727,-93.10586,,http://www.metrotransit.org/NexTripBadge.aspx?stopnumber=10491,0,1.0,78332,187945180,2be9e851da1193cddc443007673bae6d,
10492,,Rice St & Atwater St,Near side N,44.966524,-93.105867,,http://www.metrotransit.org/NexTripBadge.aspx?stopnumber=10492,0,1.0,72221,187927985,5def7ab94e0559960f619d008fd868fc,
10494,,Rice St & Manitoba Ave,Near side N,44.968266,-93.105878,,http://www.metrotransit.org/NexTripBadge.aspx?stopnumber=10494,0,1.0,77154,187942652,7d63eff7c5a8c7e156b2c07bcf51de71,
10496,,Rice St & Front Ave,Near side N,44.970151,-93.105893,,http://www.metrotransit.org/NexTripBadge.aspx?stopnumber=10496,0,1.0,82059,187953351,4973fe565ba993d3cfec2120b0025e35,
10497,,Rice St & Hatch Ave,Near side N,44.970996,-93.105887,,http://www.metrotransit.org/NexTripBadge.aspx?stopnumber=10497,0,1.0,82060,187953353,27c9cada69e9331425306e4665e541c0,
10498,,Rice St & Lawson Ave,Near side N,44.971937,-93.105881,,http://www.metrotransit.org/NexTripBadge.aspx?stopnumber=10498,0,1.0,42821,187860463,5c7215418b66e71deec76c3936bb1ec3,
10499,,Rice St & Magnolia Ave,Near side N,44.973713,-93.105869,,http://www.metrotransit.org/NexTripBadge.aspx?stopnumber=10499,0,1.0,66079,187909950,f88049405ed5f4d9783815b9b52e0881,
10501,,Rice St & Geranium Ave,Near side N,44.975499,-93.10586,,http://www.metrotransit.org/NexTripBadge.aspx?stopnumber=10501,0,1.0,57799,187891077,7dc73d8eaeff5dbe839148ed630d26b6,
10503,,Rice St & Maryland Ave,Near side N,44.977293,-93.105848,,http://www.metrotransit.org/NexTripBadge.aspx?stopnumber=10503,0,1.0,49783,187873496,e19009e992d3a7f506a7df530316ce06,
10505,,Rice St & Orange Ave,Near side N,44.979088,-93.105832,,http://www.metrotransit.org/NexTripBadge.aspx?stopnumber=10505,0,1.0,68478,187916437,3444de0e1a7001c7175ad7a95e628a3b,
10507,,Rice St & Ivy Ave,Near side N,44.980896,-93.10582,,http://www.metrotransit.org/NexTripBadge.aspx?stopnumber=10507,0,1.0,44480,187863636,a9d5355847bd47b27aac94ecdccf9cb3,
10508,,Rice St & Cottage Ave,Near side N,44.982737,-93.105816,,http://www.metrotransit.org/NexTripBadge.aspx?stopnumber=10508,0,1.0,71838,187926851,397fafb29a64c60653046faad3cfda26,
10700,,Dale St & Blair Ave,Near side N,44.961062,-93.12627,,http://www.metrotransit.org/NexTripBadge.aspx?stopnumber=10700,0,1.0,7091,944811105,ecc718dbb331cb145a1799bc83d60290,
10740,,Dale St & Blair Ave,Near side S,44.961243,-93.126413,,http://www.metrotransit.org/NexTripBadge.aspx?stopnumber=10740,0,1.0,7091,944811105,ecc718dbb331cb145a1799bc83d60290,
11834,,5th St & 7th St W,Far side E,44.945477,-93.100697,,http://www.metrotransit.org/NexTripBadge.aspx?stopnumber=11834,0,1.0,19072,772371510,0f9e1490b88cd0f7b9bfa27108dd8d12,
11837,,5th St & Minnesota St,Near side E,44.94675,-93.092095,,http://www.metrotransit.org/NexTripBadge.aspx?stopnumber=11837,0,1.0,41990,187858776,6678b5fc10f2a7f70492c9450d5a9482,
11838,,5th St & Jackson St,Near side E,44.947929,-93.089605,,http://www.metrotransit.org/NexTripBadge.aspx?stopnumber=11838,0,1.0,39430,187854528,3bb845df305e459262af05a3d0b8cb71,
11840,,5th St & Sibley St / Wacouta St,Mid block E,44.949081,-93.087238,,http://www.metrotransit.org/NexTripBadge.aspx?stopnumber=11840,0,1.0,76167,187940544,29567c47faed11eaac7a0ccc16aa3bd3,
11857,,Wacouta St & 7th St E,Far side S,44.950666,-93.088392,,http://www.metrotransit.org/NexTripBadge.aspx?stopnumber=11857,0,1.0,68420,187916225,524fe8d509ac6b26ba06a1612c225c5e,
11858,,6th St & Sibley St,Far side W,44.94937,-93.089348,,http://www.metrotransit.org/NexTripBadge.aspx?stopnumber=11858,0,1.0,68609,187916875,f5ee487b961af6557e7062eda25fdca6,
11859,,6th St & Jackson / Robert,Mid block W,44.948576,-93.091016,,http://www.metrotransit.org/NexTripBadge.aspx?stopnumber=11859,0,1.0,62146,187899923,3281286730ef42e4934f3a579cb4be06,
11861,,6th St & Cedar St,Near side W,44.94719600000001,-93.093916,,http://www.metrotransit.org/NexTripBadge.aspx?stopnumber=11861,0,1.0,70841,187923585,5a751dc1ad9a35231196a2db54111f86,
11862,,6th St & Wabasha St,Far side W,44.946268,-93.095815,,http://www.metrotransit.org/NexTripBadge.aspx?stopnumber=11862,0,1.0,69793,1554214921,01418b32ab26727ea8096aa9626085ab,
11863,,6th St & Washington St,Near side W,44.946139,-93.097264,,http://www.metrotransit.org/NexTripBadge.aspx?stopnumber=11863,0,1.0,7688,498645316,9a501654cd0cc291f4feb95745432676,
11865,,7th St W & Kellogg Blvd,Far side S,44.944439,-93.103149,,http://www.metrotransit.org/NexTripBadge.aspx?stopnumber=11865,0,1.0,25277,2458502303,d05d9658fcfce747e5281bf3b93925e9,
11883,,Kellogg Blvd & Mulberry St,Near side W,44.948204,-93.105281,,http://www.metrotransit.org/NexTripBadge.aspx?stopnumber=11883,0,1.0,71086,557023114,5268935c956f8cc1138c2a207356d7e4,
11884,,Kellogg Blvd & Mulberry St,Near side E,44.948149,-93.10568,,http://www.metrotransit.org/NexTripBadge.aspx?stopnumber=11884,0,1.0,71146,557023231,8f2499c40685dc1bf2a561f008d568ea,
11885,,John Ireland Blvd & Marshall Ave,Across from N,44.948081,-93.107699,,http://www.metrotransit.org/NexTripBadge.aspx?stopnumber=11885,0,1.0,44303,187863248,10bb7a34ee81b5f6639ae1a0e165084a,
11888,,John Ireland Blvd & Marshall Ave,Near side S,44.948286,-93.108036,,http://www.metrotransit.org/NexTripBadge.aspx?stopnumber=11888,0,1.0,133183,695049785,125c9742b5184e0253e93cee44adeda4,
11891,,Rice St & Sears Entrance,Across from N,44.95421500000001,-93.105825,,http://www.metrotransit.org/NexTripBadge.aspx?stopnumber=11891,0,1.0,68705,187917230,47690e893bf7b9f734e5b92a6ce4bc82,
11893,,Rice St & University Ave,Near side N,44.955639,-93.10582,,http://www.metrotransit.org/NexTripBadge.aspx?stopnumber=11893,0,1.0,134504,695054748,5ed9d6acf39819bd990643adc50d7f42,
11896,,Rice St & Sears,Near side S,44.954149,-93.106134,,http://www.metrotransit.org/NexTripBadge.aspx?stopnumber=11896,0,1.0,134506,695054749,708712bfd66269f53a52c702cd41f914,
11897,,Rice St & St Anthony Ave,Near side S,44.952297,-93.106146,,http://www.metrotransit.org/NexTripBadge.aspx?stopnumber=11897,0,1.0,134498,695054738,5cbc63c6b139020f876f23b13f0f6b19,
11903,,Jackson St & 14th St,Across from N,44.955244,-93.096097,,http://www.metrotransit.org/NexTripBadge.aspx?stopnumber=11903,0,1.0,36532,187848424,c0d86a6719401550c33365609be7eac8,
11904,,Jackson St & 14th St,Near side S,44.955299,-93.096553,,http://www.metrotransit.org/NexTripBadge.aspx?stopnumber=11904,0,1.0,27313,695328254,f9aaf3b5b81606dd4c3188c2645c1d35,
11912,,Cedar St & 10th St,Near side S,44.950447,-93.097561,,http://www.metrotransit.org/NexTripBadge.aspx?stopnumber=11912,0,1.0,23486,695316160,f3a61ad84fe31f132cc705b3e51a1b79,
11916,,LaFayette Rd & 8th St,Near side N,44.954091,-93.083753,,http://www.metrotransit.org/NexTripBadge.aspx?stopnumber=11916,0,1.0,160289,1200569598,d0956ff2bc5e0571c7585706f0b27b19,
11918,,LaFayette Rd & Grove St,Near side N,44.955651,-93.08464,,http://www.metrotransit.org/NexTripBadge.aspx?stopnumber=11918,0,1.0,65489,187908324,81faf22e15e47f8be4abc18ba32fb5ba,
11923,,LaFayette Rd & Grove St,Near side S,44.95584,-93.084926,,http://www.metrotransit.org/NexTripBadge.aspx?stopnumber=11923,0,1.0,160240,1200569431,9f67eb891fd09632b5401cb6ca5a2a0d,
11925,,LaFayette Rd & 8th St,Near side S,44.954132,-93.084143,,http://www.metrotransit.org/NexTripBadge.aspx?stopnumber=11925,0,1.0,160264,1200569497,6187815657ce4e2f3c481a8bf0f0af3e,
11928,,Kellogg Blvd & Broadway St,Far side E,44.948721,-93.083241,,http://www.metrotransit.org/NexTripBadge.aspx?stopnumber=11928,0,1.0,45985,187866382,047b13845620230f82930d5ede374bad,
11940,,Kellogg Blvd & Minnesota St,Near side W,44.945305,-93.090416,,http://www.metrotransit.org/NexTripBadge.aspx?stopnumber=11940,0,1.0,92316,517224690,867b32aabed35c1a677737c1a207b708,
1235,,Minnesota St & 6th St,Near side N,44.947589,-93.092726,,http://www.metrotransit.org/NexTripBadge.aspx?stopnumber=1235,0,1.0,41991,187858777,c97b7d4636d88b8dd85cfb12b14c0ad3,
1238,,Wabasha St & 7th St,Far side N,44.948436,-93.097016,,http://www.metrotransit.org/NexTripBadge.aspx?stopnumber=1238,0,1.0,100806,519337000,53c505ad928a75daeabe57ae3b22907b,
1246,,Cedar St & 5th St,Far side S,44.94591,-93.092975,,http://www.metrotransit.org/NexTripBadge.aspx?stopnumber=1246,0,1.0,70839,187923583,dcd6d80e71b7c32c9fb131c172c01964,
13709,,Burns Ave & Earl St,Near side W,44.948752,-93.05562,,http://www.metrotransit.org/NexTripBadge.aspx?stopnumber=13709,0,1.0,59012,187893390,e6404c5d89dce9d12a6595e7847146a4,
13725,,Pacific St & Cypress St,Across from W,44.951354,-93.058466,,http://www.metrotransit.org/NexTripBadge.aspx?stopnumber=13725,0,2.0,62188,187899997,0006353ffdabe849f91ec750bf1a889b,
13726,,Pacific St & Forest St,Across from W,44.951361,-93.060912,,http://www.metrotransit.org/NexTripBadge.aspx?stopnumber=13726,0,2.0,61203,187897748,c2d96bf0a84c643128a482c11aae33d1,
13727,,Pacific St & Mound St,Across from W,44.951566,-93.06308,,http://www.metrotransit.org/NexTripBadge.aspx?stopnumber=13727,0,1.0,62186,187899995,fdbc14fcadbeccba8ac560bddd15e79f,
13729,,Plum St & Mounds Blvd,Near side W,44.950682,-93.068381,,http://www.metrotransit.org/NexTripBadge.aspx?stopnumber=13729,0,1.0,41487,187857672,5bc38cad91ca40ab9377e93d2daecc9e,
13730,,Plum St & Mounds Blvd,Far side E,44.950611,-93.068272,,http://www.metrotransit.org/NexTripBadge.aspx?stopnumber=13730,0,1.0,41487,187857672,5bc38cad91ca40ab9377e93d2daecc9e,
13731,,Pacific St & Cherry St,Near side E,44.951513,-93.064997,,http://www.metrotransit.org/NexTripBadge.aspx?stopnumber=13731,0,1.0,55555,187886526,a88190d9c08417282527106cee4b83a1,
13732,,Pacific St & Mound St,Near side E,44.951462,-93.063119,,http://www.metrotransit.org/NexTripBadge.aspx?stopnumber=13732,0,1.0,62186,187899995,fdbc14fcadbeccba8ac560bddd15e79f,
13733,,Pacific St & Forest St,Near side E,44.951263,-93.060962,,http://www.metrotransit.org/NexTripBadge.aspx?stopnumber=13733,0,1.0,61203,187897748,c2d96bf0a84c643128a482c11aae33d1,
13734,,Pacific St & Cypress St,Near side E,44.95125,-93.058401,,http://www.metrotransit.org/NexTripBadge.aspx?stopnumber=13734,0,1.0,62188,187899997,0006353ffdabe849f91ec750bf1a889b,
13735,,Pacific St & Earl St,Near side E,44.951252,-93.055858,,http://www.metrotransit.org/NexTripBadge.aspx?stopnumber=13735,0,1.0,59015,187893395,c16a9cde25b58d64492b4a9f3b131a3a,
13748,,Earl St & Suburban Ave,Near side S,44.94971,-93.055802,,http://www.metrotransit.org/NexTripBadge.aspx?stopnumber=13748,0,1.0,59013,187893392,81632cfc7bf9f3278bdb7a49097e8442,
13792,,Plum St & Maria Ave,Across from W,44.951523,-93.06684,,http://www.metrotransit.org/NexTripBadge.aspx?stopnumber=13792,0,1.0,45957,187866343,80890933922ecde21bb3801d5c9d4e9a,
15058,,Minnehaha Ave & Oxford St,Near side E,44.962948,-93.144203,,http://www.metrotransit.org/NexTripBadge.aspx?stopnumber=15058,0,1.0,78889,187946086,c1fc0a0f590d733a2cd932cfeeaf3c80,
15059,,Minnehaha Ave & Chatsworth St,Near side E,44.962943,-93.141679,,http://www.metrotransit.org/NexTripBadge.aspx?stopnumber=15059,0,1.0,75136,187937732,601e5fb5d1d5047d2deaa044f0f56d35,
15060,,Minnehaha Ave & Milton St,Across from E,44.962935,-93.139179,,http://www.metrotransit.org/NexTripBadge.aspx?stopnumber=15060,0,2.0,78887,187946084,b54571aa2f8fa747b92f4645019cd75b,
15061,,Minnehaha Ave & Victoria St,Near side E,44.962927,-93.136643,,http://www.metrotransit.org/NexTripBadge.aspx?stopnumber=15061,0,1.0,51791,187877688,86b3a05a93307bdb185e074453f8d2ad,
15062,,Minnehaha Ave & Avon St,Near side E,44.962922,-93.134093,,http://www.metrotransit.org/NexTripBadge.aspx?stopnumber=15062,0,1.0,74907,187936917,2d90b348651bb17b3caf4d4e81dae773,
15063,,Minnehaha Ave & Grotto St,Near side E,44.96293,-93.131553,,http://www.metrotransit.org/NexTripBadge.aspx?stopnumber=15063,0,1.0,78886,187946083,d2910dce90b34799a010e3f076ea8226,
15064,,Minnehaha Ave & St Albans St,Near side E,44.962908,-93.129057,,http://www.metrotransit.org/NexTripBadge.aspx?stopnumber=15064,0,1.0,61477,187898310,6beb9c848c1d8823d84ea57986680c60,
15065,,Minnehaha Ave & Dale St,Near side E,44.962919,-93.126541,,http://www.metrotransit.org/NexTripBadge.aspx?stopnumber=15065,0,1.0,7101,944811113,8bbb6c5c0452ed431a209e1f67062705,
15090,,Minnehaha Ave & Dale St,Far side W,44.96301500000001,-93.126518,,http://www.metrotransit.org/NexTripBadge.aspx?stopnumber=15090,0,1.0,7101,944811113,8bbb6c5c0452ed431a209e1f67062705,
15091,,Minnehaha Ave & St Albans St,Across from W,44.96301,-93.128895,,http://www.metrotransit.org/NexTripBadge.aspx?stopnumber=15091,0,1.0,61477,187898310,6beb9c848c1d8823d84ea57986680c60,
15092,,Minnehaha Ave & Grotto St,Near side W,44.963035,-93.131299,,http://www.metrotransit.org/NexTripBadge.aspx?stopnumber=15092,0,1.0,78886,187946083,d2910dce90b34799a010e3f076ea8226,
15093,,Minnehaha Ave & Avon St,Near side W,44.963026,-93.133834,,http://www.metrotransit.org/NexTripBadge.aspx?stopnumber=15093,0,1.0,74907,187936917,2d90b348651bb17b3caf4d4e81dae773,
15094,,Minnehaha Ave & Victoria St,Near side W,44.963032,-93.136389,,http://www.metrotransit.org/NexTripBadge.aspx?stopnumber=15094,0,1.0,51791,187877688,86b3a05a93307bdb185e074453f8d2ad,
15095,,Minnehaha Ave & Milton St,Near side W,44.963039,-93.139017,,http://www.metrotransit.org/NexTripBadge.aspx?stopnumber=15095,0,1.0,78887,187946084,b54571aa2f8fa747b92f4645019cd75b,
15096,,Minnehaha Ave & Chatsworth St,Near side W,44.963047,-93.141424,,http://www.metrotransit.org/NexTripBadge.aspx?stopnumber=15096,0,1.0,75136,187937732,601e5fb5d1d5047d2deaa044f0f56d35,
15097,,Minnehaha Ave & Oxford St,Near side W,44.96305200000001,-93.143948,,http://www.metrotransit.org/NexTripBadge.aspx?stopnumber=15097,0,1.0,78889,187946086,c1fc0a0f590d733a2cd932cfeeaf3c80,
15098,,Minnehaha Ave & Lexington Pkwy,Near side W,44.963074,-93.146375,,http://www.metrotransit.org/NexTripBadge.aspx?stopnumber=15098,0,1.0,123034,689781480,df685eaa229ef4134b08670bd7f774de,
15820,,University Ave & Lexington Pkwy,Far side E,44.955625,-93.146244,,http://www.metrotransit.org/NexTripBadge.aspx?stopnumber=15820,0,1.0,32489,716319384,cafec28b94e6d5824e2699d108eab023,
15821,,University Ave & Oxford St,Near side E,44.9556,-93.144208,,http://www.metrotransit.org/NexTripBadge.aspx?stopnumber=15821,0,1.0,32501,716319397,07556c21ba9276917f1728a5e488d3a0,
15822,,University Ave & Chatsworth St,Near side E,44.955625,-93.141677,,http://www.metrotransit.org/NexTripBadge.aspx?stopnumber=15822,0,1.0,32520,716319412,d5b327b7ca3dc42c7e9b24a585b7ce03,
15823,,University Ave & Milton St,Near side E,44.955595,-93.139145,,http://www.metrotransit.org/NexTripBadge.aspx?stopnumber=15823,0,1.0,32548,716319446,3ff44c364cae3bc819f9540b08cfdc2d,
15824,,University Ave & Victoria St,Near side E,44.955596,-93.136603,,http://www.metrotransit.org/NexTripBadge.aspx?stopnumber=15824,0,1.0,32540,716319435,a2ff204ac6c12bbfe1d5b82203749400,
15825,,University Ave & Avon St,Far side E,44.955593,-93.133759,,http://www.metrotransit.org/NexTripBadge.aspx?stopnumber=15825,0,1.0,32473,716319364,38e7bbe2e10fc4b34b6e2b03db314fce,
15826,,University Ave & Grotto St,Near side E,44.95559,-93.131541,,http://www.metrotransit.org/NexTripBadge.aspx?stopnumber=15826,0,1.0,32496,716319390,c830d4cfe00c37e0ba54c7d6bbea98c3,
15827,,University Ave & St Albans St,Near side E,44.955613,-93.12904,,http://www.metrotransit.org/NexTripBadge.aspx?stopnumber=15827,0,1.0,32514,716319404,62da7fb4ab6d033a67ec50cfeebf6fd6,
15828,,University Ave & Dale St,Far side E,44.95560800000001,-93.125806,,http://www.metrotransit.org/NexTripBadge.aspx?stopnumber=15828,0,1.0,7076,944811049,524a940ccbfb6a6dc76c1a119f488c5f,
15829,,University Ave & Kent St,Across from E,44.955613,-93.123912,,http://www.metrotransit.org/NexTripBadge.aspx?stopnumber=15829,0,1.0,32539,716319436,593ab996104683388e1a83440852bf18,
15830,,University Ave & Mackubin St,Near side E,44.955613,-93.121366,,http://www.metrotransit.org/NexTripBadge.aspx?stopnumber=15830,0,1.0,32486,716319380,48f1f48c23f2d4022ec424336e89e4b8,
15831,,University Ave & Arundel St,Near side E,44.955621,-93.118804,,http://www.metrotransit.org/NexTripBadge.aspx?stopnumber=15831,0,1.0,32500,716319396,03c62ce6f597787386ab0716f6324598,
15832,,University Ave & Western Ave,Near side E,44.955651,-93.116257,,http://www.metrotransit.org/NexTripBadge.aspx?stopnumber=15832,0,1.0,32517,716319409,1270be4b5a62ed118cc2010bcf54075f,
15833,,University Ave & Farrington St,Far side E,44.955662,-93.113104,,http://www.metrotransit.org/NexTripBadge.aspx?stopnumber=15833,0,1.0,32469,716319360,d4e801c5f764f9b1cd0ed5614dcb96dd,
15838,,University Ave & Marion St,Far side W,44.955921,-93.109588,,http://www.metrotransit.org/NexTripBadge.aspx?stopnumber=15838,0,1.0,32549,716319449,ea1886a86984dd2092de4b4a64a96253,
15840,,University Ave & Farrington St,Far side W,44.955906,-93.113622,,http://www.metrotransit.org/NexTripBadge.aspx?stopnumber=15840,0,1.0,32475,716319369,0ec5caeab7b8147e1baaad38200d5ffd,
15842,,University Ave & Western Ave,Far side W,44.955892,-93.116324,,http://www.metrotransit.org/NexTripBadge.aspx?stopnumber=15842,0,1.0,32519,716319415,452a0a30c8d32d6174b4d3401e8cba19,
15843,,University Ave & Arundel St,Near side W,44.95589,-93.118553,,http://www.metrotransit.org/NexTripBadge.aspx?stopnumber=15843,0,1.0,32518,716319411,42f13ae87fdcf880ddd9c77bbd5f289a,
15844,,University Ave & Mackubin St,Near side W,44.95586,-93.121108,,http://www.metrotransit.org/NexTripBadge.aspx?stopnumber=15844,0,1.0,32528,716319423,51d7165be91cc27998573a2f2845f856,
15845,,University Ave & Kent St,Near side W,44.955874,-93.123658,,http://www.metrotransit.org/NexTripBadge.aspx?stopnumber=15845,0,1.0,32539,716319436,593ab996104683388e1a83440852bf18,
15846,,University Ave & Dale St,Near side W,44.955838,-93.126065,,http://www.metrotransit.org/NexTripBadge.aspx?stopnumber=15846,0,1.0,7095,944811110,7491433ee1ce3760cfb628976e5a58e4,
15847,,University Ave & St Albans St,Near side W,44.95586,-93.128786,,http://www.metrotransit.org/NexTripBadge.aspx?stopnumber=15847,0,1.0,32483,716319377,be84cab22dc066ddb1ac7a07e88761a9,
15848,,University Ave & Grotto St,Near side W,44.955832,-93.13129,,http://www.metrotransit.org/NexTripBadge.aspx?stopnumber=15848,0,1.0,32476,716319370,fe20bacec9866918eb6a0fd6efb63729,
15849,,University Ave & Avon St,Near side W,44.95584,-93.133829,,http://www.metrotransit.org/NexTripBadge.aspx?stopnumber=15849,0,1.0,32488,716319383,2d736c9965d7f61a030f661bb974f766,
15850,,University Ave & Victoria St,Near side W,44.955846,-93.136352,,http://www.metrotransit.org/NexTripBadge.aspx?stopnumber=15850,0,1.0,32529,716319417,a371ff8203e3739c6ec59407ae3694da,
15851,,University Ave & Milton St,Near side W,44.955823,-93.138887,,http://www.metrotransit.org/NexTripBadge.aspx?stopnumber=15851,0,1.0,32533,716319430,1a5997006055810056d85c5e0f0dce42,
15852,,University Ave & Chatsworth St,Near side W,44.95583900000001,-93.141426,,http://www.metrotransit.org/NexTripBadge.aspx?stopnumber=15852,0,1.0,32547,716319445,424d9d51045d490175ea16b57065d555,
15853,,University Ave & Oxford St,Far side W,44.955852,-93.144274,,http://www.metrotransit.org/NexTripBadge.aspx?stopnumber=15853,0,1.0,32480,716319374,e8597437c9af3436617c71da980a7768,
15854,,University Ave & Lexington Pkwy,Near side W,44.95585,-93.146407,,http://www.metrotransit.org/NexTripBadge.aspx?stopnumber=15854,0,1.0,32516,716319408,0ed6739127fc9349a8bd63c2896c08ab,
16212,,University Ave & Marion St,Near side E,44.955682,-93.109592,,http://www.metrotransit.org/NexTripBadge.aspx?stopnumber=16212,0,1.0,32493,716319389,fc61f955a070e68726153d260fb6625a,
17005,,Selby Ave & Lexington Pkwy,Near side W,44.946671,-93.146419,,http://www.metrotransit.org/NexTripBadge.aspx?stopnumber=17005,0,1.0,123002,689781426,3a443952594792f8634983a7e8111090,
17006,,Selby Ave & Oxford St,Near side W,44.946664,-93.14395,,http://www.metrotransit.org/NexTripBadge.aspx?stopnumber=17006,0,1.0,75788,187939786,b1c7efca598dde40701ca3ed0c0d3fd3,
17007,,Selby Ave & Oxford St,Near side E,44.946559,-93.144228,,http://www.metrotransit.org/NexTripBadge.aspx?stopnumber=17007,0,1.0,75788,187939786,b1c7efca598dde40701ca3ed0c0d3fd3,
17008,,Selby Ave & Chatsworth St,Near side E,44.946554,-93.14167,,http://www.metrotransit.org/NexTripBadge.aspx?stopnumber=17008,0,1.0,75122,187937706,b1c7efca598dde40701ca3ed0c0d3fd3,
17009,,Selby Ave & Chatsworth St,Near side W,44.946659,-93.141415,,http://www.metrotransit.org/NexTripBadge.aspx?stopnumber=17009,0,1.0,75122,187937706,b1c7efca598dde40701ca3ed0c0d3fd3,
17010,,Selby Ave & Milton St,Near side W,44.946651,-93.138877,,http://www.metrotransit.org/NexTripBadge.aspx?stopnumber=17010,0,1.0,75787,187939785,4ba8ba938790fcd59513ac80848e9af4,
17011,,Selby Ave & Milton St,Far side E,44.946547,-93.138811,,http://www.metrotransit.org/NexTripBadge.aspx?stopnumber=17011,0,1.0,75787,187939785,4ba8ba938790fcd59513ac80848e9af4,
17013,,Selby Ave & Victoria St,Far side W,44.946645,-93.13684,,http://www.metrotransit.org/NexTripBadge.aspx?stopnumber=17013,0,1.0,51814,187877708,24835d98025cbe3e54b30a44411c1df4,
17016,,Selby Ave & Avon St,Near side E,44.946553,-93.133378,,http://www.metrotransit.org/NexTripBadge.aspx?stopnumber=17016,0,1.0,74898,187936894,904dc4ca4ee41bc5021f1863cd90a8b4,
17017,,Selby Ave & Avon St,Near side W,44.946658,-93.132896,,http://www.metrotransit.org/NexTripBadge.aspx?stopnumber=17017,0,1.0,74898,187936894,904dc4ca4ee41bc5021f1863cd90a8b4,
17018,,Selby Ave & St Albans St / Grotto St,Mid block W,44.946656,-93.130079,,http://www.metrotransit.org/NexTripBadge.aspx?stopnumber=17018,0,1.0,61464,187898278,a8ad8260d82a91d026705f25081496cf,
17019,,Selby Ave & Grotto St,Near side E,44.946552,-93.131659,,http://www.metrotransit.org/NexTripBadge.aspx?stopnumber=17019,0,1.0,75786,187939784,85380027198a7a07c7c342c14fe447b0,
17022,,Selby Ave & Dale St,Near side E,44.946541,-93.126667,,http://www.metrotransit.org/NexTripBadge.aspx?stopnumber=17022,0,1.0,44190,187863051,5856d5ce11426c640966a11da4c30ecd,
17023,,Selby Ave & Dale St,Near side W,44.94663900000001,-93.125508,,http://www.metrotransit.org/NexTripBadge.aspx?stopnumber=17023,0,1.0,44190,187863051,5856d5ce11426c640966a11da4c30ecd,
17024,,Selby Ave & Kent St,Near side W,44.94663,-93.123553,,http://www.metrotransit.org/NexTripBadge.aspx?stopnumber=17024,0,1.0,71456,187925274,93683863d67b70a53b91cd41fd5a9772,
17025,,Selby Ave & Kent St,Near side E,44.946525,-93.123939,,http://www.metrotransit.org/NexTripBadge.aspx?stopnumber=17025,0,1.0,71456,187925274,93683863d67b70a53b91cd41fd5a9772,
17026,,Selby Ave & Mackubin St,Far side E,44.946529,-93.120698,,http://www.metrotransit.org/NexTripBadge.aspx?stopnumber=17026,0,1.0,71964,187927163,96ba81f4f3a764b819a6d8a05e534214,
17027,,Selby Ave & Mackubin St,Near side W,44.946633,-93.121046,,http://www.metrotransit.org/NexTripBadge.aspx?stopnumber=17027,0,1.0,71964,187927163,96ba81f4f3a764b819a6d8a05e534214,
17028,,Selby Ave & Arundel St,Near side W,44.946638,-93.11848,,http://www.metrotransit.org/NexTripBadge.aspx?stopnumber=17028,0,1.0,75783,187939782,921f724170eab017108e54e5822af87a,
17029,,Selby Ave & Arundel St,Far side E,44.946531,-93.118287,,http://www.metrotransit.org/NexTripBadge.aspx?stopnumber=17029,0,1.0,75783,187939782,921f724170eab017108e54e5822af87a,
17030,,Selby Ave & Western Ave,Near side E,44.946525,-93.116231,,http://www.metrotransit.org/NexTripBadge.aspx?stopnumber=17030,0,1.0,46083,187866514,ff2379005327c51fe8671a4c6724dfa9,
17031,,Selby Ave & Western Ave,Near side W,44.946627,-93.115976,,http://www.metrotransit.org/NexTripBadge.aspx?stopnumber=17031,0,1.0,46083,187866514,ff2379005327c51fe8671a4c6724dfa9,
17034,,Selby Ave & Farrington St,Near side E,44.9465,-93.113534,,http://www.metrotransit.org/NexTripBadge.aspx?stopnumber=17034,0,1.0,72311,187928466,bc421d8b83dc6f79f112ebf9efcdfac4,
17035,,Selby Ave & Farrington St,Near side W,44.946605,-93.11328,,http://www.metrotransit.org/NexTripBadge.aspx?stopnumber=17035,0,1.0,72311,187928466,bc421d8b83dc6f79f112ebf9efcdfac4,
17036,,Selby Ave & Nina St,Across from W,44.946601,-93.111912,,http://www.metrotransit.org/NexTripBadge.aspx?stopnumber=17036,0,1.0,68417,187916219,fe9921dfee84aef71e8378983f917fff,
17037,,Selby Ave & Nina St,Near side E,44.946496,-93.112058,,http://www.metrotransit.org/NexTripBadge.aspx?stopnumber=17037,0,1.0,68417,187916219,fe9921dfee84aef71e8378983f917fff,
17038,,Selby Ave & Summit Ave,Near side E,44.946478000000006,-93.108299,,http://www.metrotransit.org/NexTripBadge.aspx?stopnumber=17038,0,1.0,44298,187863239,f2f9e38398ec90752e3cbedcc0b60457,
17039,,Selby Ave & Summit Ave,Far side W,44.946585,-93.108512,,http://www.metrotransit.org/NexTripBadge.aspx?stopnumber=17039,0,1.0,44298,187863239,f2f9e38398ec90752e3cbedcc0b60457,
18034,,Westminster St & Hyacinth Ave E,Near side N,44.979488,-93.086148,,http://www.metrotransit.org/NexTripBadge.aspx?stopnumber=18034,0,1.0,51500,187877113,4c8f20fffbd86c21adb527af61222611,
18035,,Westminster St & #1362,Far side N,44.981464,-93.086139,,http://www.metrotransit.org/NexTripBadge.aspx?stopnumber=18035,0,1.0,50368,187874465,1f9457b278156828fd65e37d9bccb796,
18036,,Westminster St & Cottage St E,Near side N,44.982696,-93.086156,,http://www.metrotransit.org/NexTripBadge.aspx?stopnumber=18036,0,1.0,50368,187874465,1f9457b278156828fd65e37d9bccb796,
18038,,Westminster St & Arlington Ave,Near side N,44.984468,-93.086167,,http://www.metrotransit.org/NexTripBadge.aspx?stopnumber=18038,0,1.0,73921,187933799,307ef918116c8da937b4f6dbf058313c,
18104,,LOrient St & Arch St,Near side N,44.95991,-93.091227,,http://www.metrotransit.org/NexTripBadge.aspx?stopnumber=18104,0,1.0,49924,187873722,6047faa94ee2275f1342dda56381dfa7,
18106,,LOrient St & Pennsylvania Ave,Near side N,44.961556,-93.091524,,http://www.metrotransit.org/NexTripBadge.aspx?stopnumber=18106,0,1.0,170110,6013050891,f31082ffc2450a5354b0b49df7afe296,
18111,,Arkwright St & Case Ave,Far side N,44.970332,-93.083598,,http://www.metrotransit.org/NexTripBadge.aspx?stopnumber=18111,0,1.0,72289,187928396,7d3b4d3b1a6f980c27ad9995bd064b29,
18113,,Arkwright St & Lawson Ave,Near side N,44.971846,-93.083608,,http://www.metrotransit.org/NexTripBadge.aspx?stopnumber=18113,0,1.0,72291,187928400,671e2fe260e840bf7a3175f38451c590,
18115,,Arkwright St & Magnolia Ave,Near side N,44.973646,-93.083603,,http://www.metrotransit.org/NexTripBadge.aspx?stopnumber=18115,0,1.0,72294,187928404,9d7666ffad66a50170d9a5d085383cb3,
18117,,Arkwright St & Geranium Ave,Near side N,44.97544600000001,-93.083606,,http://www.metrotransit.org/NexTripBadge.aspx?stopnumber=18117,0,1.0,72295,187928405,bb7ffb3d52487969a6187a7fc1bbdddd,
18119,,Arkwright St & Maryland Ave,Near side N,44.97726,-93.083597,,http://www.metrotransit.org/NexTripBadge.aspx?stopnumber=18119,0,1.0,47500,187869118,b29e166fac7def57dbfec3c7e15c18e1,
18122,,Arkwright St & Geranium Ave,Near side S,44.975632,-93.083753,,http://www.metrotransit.org/NexTripBadge.aspx?stopnumber=18122,0,1.0,72295,187928405,bb7ffb3d52487969a6187a7fc1bbdddd,
18124,,Arkwright St & Magnolia Ave,Near side S,44.973827,-93.08375,,http://www.metrotransit.org/NexTripBadge.aspx?stopnumber=18124,0,1.0,72294,187928404,9d7666ffad66a50170d9a5d085383cb3,
18126,,Arkwright St & Lawson Ave,Near side S,44.972019,-93.083755,,http://www.metrotransit.org/NexTripBadge.aspx?stopnumber=18126,0,1.0,72291,187928400,671e2fe260e840bf7a3175f38451c590,
18128,,Arkwright St & Case Ave,Near side S,44.970222,-93.083749,,http://www.metrotransit.org/NexTripBadge.aspx?stopnumber=18128,0,1.0,72289,187928396,7d3b4d3b1a6f980c27ad9995bd064b29,
18133,,LOrient St & Pennsylvania Ave,Far side S,44.961545,-93.091705,,http://www.metrotransit.org/NexTripBadge.aspx?stopnumber=18133,0,1.0,170110,6013050891,f31082ffc2450a5354b0b49df7afe296,
18134,,LOrient St & Arch St,Near side S,44.96002,-93.091405,,http://www.metrotransit.org/NexTripBadge.aspx?stopnumber=18134,0,1.0,49924,187873722,6047faa94ee2275f1342dda56381dfa7,
18135,,LOrient St & Mount Airy St (Winter St),Far side S,44.958699,-93.091382,,http://www.metrotransit.org/NexTripBadge.aspx?stopnumber=18135,0,1.0,70157,187921518,df0d3802b8da1e4d4000705641291f24,
18189,,Edgerton St & Cottage Ave,Near side N,44.98281,-93.076054,,http://www.metrotransit.org/NexTripBadge.aspx?stopnumber=18189,0,1.0,50364,187874460,a4c328200ff079e66f7390a6e276037f,
18191,,Edgerton St & Arlington Ave,Near side N,44.984558,-93.076068,,http://www.metrotransit.org/NexTripBadge.aspx?stopnumber=18191,0,1.0,61777,187899075,1892841584c0223ca83ed8a1874d3ced,
18618,,Front Ave & Churchill St,Across from E,44.970162,-93.145651,,http://www.metrotransit.org/NexTripBadge.aspx?stopnumber=18618,0,1.0,72333,187928526,325c50c462aabc9698cacba24773de56,
18619,,Front Ave & Oxford St,Near side E,44.970156,-93.144182,,http://www.metrotransit.org/NexTripBadge.aspx?stopnumber=18619,0,1.0,83136,187955999,af19016b1732542afacaf6acd5b9c3ea,
18621,,Front Ave & Chatsworth St,Far side E,44.970151,-93.141353,,http://www.metrotransit.org/NexTripBadge.aspx?stopnumber=18621,0,1.0,66544,187911330,5281e09caa4dbfefd50e5d36643ae04d,
18623,,Front Ave & Oxford St,Near side W,44.97026,-93.143928,,http://www.metrotransit.org/NexTripBadge.aspx?stopnumber=18623,0,1.0,83136,187955999,af19016b1732542afacaf6acd5b9c3ea,
18625,,Front Ave & Lexington Pkwy,Near side W,44.970408,-93.146359,,http://www.metrotransit.org/NexTripBadge.aspx?stopnumber=18625,0,1.0,123049,689781494,bff68f6a0980e6556b81b938875c170b,
18666,,Marion St & Ravoux St,Across from N,44.952115,-93.109701,,http://www.metrotransit.org/NexTripBadge.aspx?stopnumber=18666,0,1.0,118248,516754176,f96f9be989bbb66bf44998ac50dcd4dd,
18667,,Marion St & Ravoux St,Far side S,44.952011,-93.110075,,http://www.metrotransit.org/NexTripBadge.aspx?stopnumber=18667,0,1.0,118090,516753836,9e6ac5b55c4fe4e870bf1a31971422cf,
18834,,Thomas Ave & Kent St,Near side E,44.959289,-93.123932,,http://www.metrotransit.org/NexTripBadge.aspx?stopnumber=18834,0,1.0,59964,187895443,074e4dd18891693ed2787754dfbe3a59,
18835,,Thomas Ave & Mackubin St,Near side E,44.959295,-93.121378,,http://www.metrotransit.org/NexTripBadge.aspx?stopnumber=18835,0,1.0,59962,187895441,aa4848760d63f37cf9011768a42def08,
18836,,Thomas Ave & Arundel St,Near side E,44.9593,-93.118827,,http://www.metrotransit.org/NexTripBadge.aspx?stopnumber=18836,0,1.0,48550,187871042,646bc85f80b43aaddfc5151d7085dee6,
18837,,Thomas Ave & Western Ave,Near side E,44.959306,-93.116261,,http://www.metrotransit.org/NexTripBadge.aspx?stopnumber=18837,0,1.0,59961,187895439,646bc85f80b43aaddfc5151d7085dee6,
18839,,Thomas Ave & Farrington St,Near side E,44.959319,-93.113552,,http://www.metrotransit.org/NexTripBadge.aspx?stopnumber=18839,0,1.0,59958,187895436,dd28323801615b97dbd140017706ea0a,
18841,,Thomas Ave & Galtier St,Near side E,44.95933,-93.110723,,http://www.metrotransit.org/NexTripBadge.aspx?stopnumber=18841,0,1.0,47968,187869885,bdd1b943d7c7845ad3ba100c3052b08e,
18843,,Marion St & Como Ave,Near side N,44.960224,-93.108499,,http://www.metrotransit.org/NexTripBadge.aspx?stopnumber=18843,0,1.0,57530,187890615,df8836752bbc2d74460ab9a3ed53380c,
18845,,Thomas Ave & Galtier St,Near side W,44.959435,-93.110468,,http://www.metrotransit.org/NexTripBadge.aspx?stopnumber=18845,0,1.0,47968,187869885,bdd1b943d7c7845ad3ba100c3052b08e,
18847,,Thomas Ave & Farrington St,Near side W,44.959424,-93.113297,,http://www.metrotransit.org/NexTripBadge.aspx?stopnumber=18847,0,1.0,59958,187895436,dd28323801615b97dbd140017706ea0a,
18849,,Thomas Ave & Western Ave,Near side W,44.95941,-93.116006,,http://www.metrotransit.org/NexTripBadge.aspx?stopnumber=18849,0,1.0,59961,187895439,646bc85f80b43aaddfc5151d7085dee6,
18850,,Thomas Ave & Arundel St,Near side W,44.959405,-93.118572,,http://www.metrotransit.org/NexTripBadge.aspx?stopnumber=18850,0,1.0,48550,187871042,646bc85f80b43aaddfc5151d7085dee6,
18851,,Thomas Ave & Mackubin St,Near side W,44.959399,-93.121123,,http://www.metrotransit.org/NexTripBadge.aspx?stopnumber=18851,0,1.0,59962,187895441,aa4848760d63f37cf9011768a42def08,
18852,,Thomas Ave & Kent St,Near side W,44.959394,-93.123677,,http://www.metrotransit.org/NexTripBadge.aspx?stopnumber=18852,0,1.0,59964,187895443,074e4dd18891693ed2787754dfbe3a59,
18853,,Thomas Ave & Dale St,Near side W,44.95938,-93.126193,,http://www.metrotransit.org/NexTripBadge.aspx?stopnumber=18853,0,1.0,7112,944811132,b6fc9c7bf1a4a0968f54a1207e422671,
20012,,Broadway St & 5th St / 4th St,Mid block S,44.949747,-93.084782,,http://www.metrotransit.org/NexTripBadge.aspx?stopnumber=20012,0,1.0,57484,187890517,ea6d1d533175bd89ddc29c05f8c5a9e3,
20013,,Cedar St & 7th Place / 6th St,Mid block S,44.947686,-93.094643,,http://www.metrotransit.org/NexTripBadge.aspx?stopnumber=20013,0,1.0,70841,187923585,5a751dc1ad9a35231196a2db54111f86,
20029,,Wabasha St & 6th St,Near side N,44.946427,-93.095085,,http://www.metrotransit.org/NexTripBadge.aspx?stopnumber=20029,0,1.0,45691,187865924,2baaa1d442e4aff56dafeeb0c1b4661f,
20030,,Wabasha St & 7th Place,Near side N,44.94696,-93.095667,,http://www.metrotransit.org/NexTripBadge.aspx?stopnumber=20030,0,1.0,45691,187865924,2baaa1d442e4aff56dafeeb0c1b4661f,
2605,,Cesar Chavez St & State St,Far side W,44.929875,-93.078124,,http://www.metrotransit.org/NexTripBadge.aspx?stopnumber=2605,0,1.0,73015,187930997,caf82a36667ee9c5dde26d39bcc9e140,
2606,,Cesar Chavez St  & Winifred St,Near side W,44.9313,-93.080297,,http://www.metrotransit.org/NexTripBadge.aspx?stopnumber=2606,0,1.0,55352,187885937,087b829a85dd0a002651ae1fec117025,
2607,,Robert St S & Isabel St,Near side N,44.93300900000001,-93.080759,,http://www.metrotransit.org/NexTripBadge.aspx?stopnumber=2607,0,1.0,62438,187900587,6354bfc18d6bb5b5adef217175f76131,
2608,,Robert St S & Colorado St,Near side N,44.934694,-93.080792,,http://www.metrotransit.org/NexTripBadge.aspx?stopnumber=2608,0,1.0,62436,187900583,fcefa1b7842e07f0100356295692f643,
2609,,Robert St S & Plato Blvd E,Near side N,44.938296,-93.082389,,http://www.metrotransit.org/NexTripBadge.aspx?stopnumber=2609,0,1.0,75318,652981846,f4266a81910189701fdb74ca183a22fd,
2610,,Robert St S & Fillmore Ave,Near side N,44.941265,-93.084877,,http://www.metrotransit.org/NexTripBadge.aspx?stopnumber=2610,0,1.0,57992,187891416,98e48a4ff360a8833c1f04b975fb8f73,
2611,,Minnesota St & 4th St,Near side N,44.945928,-93.091109,,http://www.metrotransit.org/NexTripBadge.aspx?stopnumber=2611,0,1.0,41989,187858774,27fe3d7838645bd19668e902b6d43f24,
2619,,Wabasha St & Plato Blvd,Far side S,44.937235,-93.087722,,http://www.metrotransit.org/NexTripBadge.aspx?stopnumber=2619,0,1.0,75307,652981803,fa1d55241b9a195a9140c7e970cbab36,
272,,Stryker Ave & Annapolis St,Far side N,44.919787,-93.087939,,http://www.metrotransit.org/NexTripBadge.aspx?stopnumber=272,0,1.0,11440,186713478,664770357940876601199f2cd2dc3196,
274,,Stryker Ave & Winona St,Near side N,44.921293,-93.087953,,http://www.metrotransit.org/NexTripBadge.aspx?stopnumber=274,0,1.0,40251,187855838,e4b51227712dc06d052a356e343f38f7,
276,,Stryker Ave & Curtice St,Near side N,44.922975,-93.087971,,http://www.metrotransit.org/NexTripBadge.aspx?stopnumber=276,0,1.0,40250,187855836,721a984946b04b4f6ddcc28628cb6eb0,
278,,Stryker Ave & Morton St,Near side N,44.925349,-93.087975,,http://www.metrotransit.org/NexTripBadge.aspx?stopnumber=278,0,1.0,40244,187855827,e29a3e6eec101919c54207ae0f98fab4,
2781,,Wabasha St & Torre de San Miguel,Near side N,44.934669,-93.084705,,http://www.metrotransit.org/NexTripBadge.aspx?stopnumber=2781,0,1.0,67033,187912752,2f1d80f3705f455936e5be126fb1718e,
2785,,Wabasha St & 4th St,Near side N,44.944812,-93.093533,,http://www.metrotransit.org/NexTripBadge.aspx?stopnumber=2785,0,1.0,45946,187866334,aacd069688c66091114cb1f179ecebc8,
2793,,Kellogg Blvd & Minnesota St,Across from E,44.944982,-93.090373,,http://www.metrotransit.org/NexTripBadge.aspx?stopnumber=2793,0,1.0,92330,517224716,db5097d814febbb8a08d092c885d3cfa,
2797,,Robert St S & Colorado St,Near side S,44.934875,-93.080939,,http://www.metrotransit.org/NexTripBadge.aspx?stopnumber=2797,0,1.0,62436,187900583,fcefa1b7842e07f0100356295692f643,
2798,,Robert St S & Isabel St,Near side S,44.93319,-93.08091,,http://www.metrotransit.org/NexTripBadge.aspx?stopnumber=2798,0,1.0,62438,187900587,6354bfc18d6bb5b5adef217175f76131,
280,,Stryker Ave & Elizabeth St,Across from N,44.927044,-93.087993,,http://www.metrotransit.org/NexTripBadge.aspx?stopnumber=280,0,1.0,12520,1713446238,346769f74bee3ac6749c04942f2a9c58,
282,,Stryker Ave & Stevens St,Near side N,44.928735,-93.088022,,http://www.metrotransit.org/NexTripBadge.aspx?stopnumber=282,0,1.0,40240,187855820,5d69a699681748b504d07818402df105,
284,,George St & Hall Ave,Near side E,44.929636,-93.086768,,http://www.metrotransit.org/NexTripBadge.aspx?stopnumber=284,0,1.0,12533,1713446273,496efcf5a5d6e7ce50518709ecbb1be9,
285,,Humboldt Ave & Robie St,Across from N,44.930444,-93.085116,,http://www.metrotransit.org/NexTripBadge.aspx?stopnumber=285,0,1.0,12540,1713446284,b82d39bcaf232449b71cb8054f784ca6,
286,,Humboldt Ave & Winifred St,Across from N,44.931311,-93.085133,,http://www.metrotransit.org/NexTripBadge.aspx?stopnumber=286,0,1.0,12549,1713446297,db37c931d7966e66082b3f1e1e21b7bd,
287,,Wabasha St & Congress St,Near side N,44.932137,-93.084644,,http://www.metrotransit.org/NexTripBadge.aspx?stopnumber=287,0,1.0,12551,1713446306,10feb01a77aa5653a4a048e9772e81eb,
289,,Wabasha St & Cesar Chavez St,Near side N,44.933751,-93.084171,,http://www.metrotransit.org/NexTripBadge.aspx?stopnumber=289,0,1.0,67033,187912752,2f1d80f3705f455936e5be126fb1718e,
291,,Wabasha St & Vision Loss Resources,Near side N,44.936163,-93.086662,,http://www.metrotransit.org/NexTripBadge.aspx?stopnumber=291,0,1.0,5149,652245100,55d02fa3aa91908ecba6798814bd9d73,
292,,Wabasha St & Plato Blvd,Near side N,44.937331,-93.08763,,http://www.metrotransit.org/NexTripBadge.aspx?stopnumber=292,0,1.0,75307,652981803,fa1d55241b9a195a9140c7e970cbab36,
299,,Wabasha St & Congress St,Near side S,44.932348,-93.084644,,http://www.metrotransit.org/NexTripBadge.aspx?stopnumber=299,0,1.0,12551,1713446306,10feb01a77aa5653a4a048e9772e81eb,
300,,Wabasha St & Winifred St,Near side S,44.931497,-93.085261,,http://www.metrotransit.org/NexTripBadge.aspx?stopnumber=300,0,1.0,12549,1713446297,db37c931d7966e66082b3f1e1e21b7bd,
303,,George St & Hall Ave,Near side W,44.92974,-93.086514,,http://www.metrotransit.org/NexTripBadge.aspx?stopnumber=303,0,1.0,12533,1713446273,496efcf5a5d6e7ce50518709ecbb1be9,
304,,Stryker Ave & George St,Far side S,44.929481,-93.088178,,http://www.metrotransit.org/NexTripBadge.aspx?stopnumber=304,0,1.0,40238,187855819,496efcf5a5d6e7ce50518709ecbb1be9,
307,,Stryker Ave & Elizabeth St,Near side S,44.927225,-93.088144,,http://www.metrotransit.org/NexTripBadge.aspx?stopnumber=307,0,1.0,12520,1713446238,346769f74bee3ac6749c04942f2a9c58,
309,,Stryker Ave & Morton St,Near side S,44.92553,-93.088122,,http://www.metrotransit.org/NexTripBadge.aspx?stopnumber=309,0,1.0,40244,187855827,e29a3e6eec101919c54207ae0f98fab4,
312,,Stryker Ave & Curtice St,Across from S,44.923093,-93.08811,,http://www.metrotransit.org/NexTripBadge.aspx?stopnumber=312,0,2.0,40247,187855832,8442ed2b11a7602cc1c94f49cb88c28e,
314,,Stryker Ave & Winona St,Near side S,44.92148,-93.0881,,http://www.metrotransit.org/NexTripBadge.aspx?stopnumber=314,0,1.0,40251,187855838,e4b51227712dc06d052a356e343f38f7,
3142,,5th St & Market St,Near side E,44.945084,-93.096748,,http://www.metrotransit.org/NexTripBadge.aspx?stopnumber=3142,0,1.0,44252,187863166,872010539448c365aaf877f2c520abb0,
3151,,Kellogg Blvd & Lafayette Bridge,Near side E,44.949669,-93.081217,,http://www.metrotransit.org/NexTripBadge.aspx?stopnumber=3151,0,1.0,98429,3497288805,ce295fe4855607870ba7c80203a8c7a4,
316,,Stryker Ave & Annapolis St,Near side S,44.919781,-93.088086,,http://www.metrotransit.org/NexTripBadge.aspx?stopnumber=316,0,1.0,11440,186713478,664770357940876601199f2cd2dc3196,
3254,,Kellogg Blvd & Broadway St,Near side W,44.948718,-93.08355,,http://www.metrotransit.org/NexTripBadge.aspx?stopnumber=3254,0,1.0,45985,187866382,047b13845620230f82930d5ede374bad,
3256,,Broadway St & 4th St / 5th St,Mid block N,44.949867,-93.084724,,http://www.metrotransit.org/NexTripBadge.aspx?stopnumber=3256,0,1.0,150855,2053025178,c23797607a0dcb04bc511a6dd873c580,
3264,,6th St & Washington St / 7th St,Mid block W,44.9463,-93.098956,,http://www.metrotransit.org/NexTripBadge.aspx?stopnumber=3264,0,1.0,100784,519336968,42a9a984b63718279f15555e14b9d8dc,
40030,,Westminster St & #1325,Near side S,44.981453,-93.086286,,http://www.metrotransit.org/NexTripBadge.aspx?stopnumber=40030,0,1.0,50368,187874465,1f9457b278156828fd65e37d9bccb796,
40068,,Westminster St & Cottage St E,Across from S,44.98302,-93.086304,,http://www.metrotransit.org/NexTripBadge.aspx?stopnumber=40068,0,1.0,50368,187874465,1f9457b278156828fd65e37d9bccb796,
40091,,Westminster St & Hyacinth Ave E,Near side S,44.979645,-93.086295,,http://www.metrotransit.org/NexTripBadge.aspx?stopnumber=40091,0,1.0,51500,187877113,4c8f20fffbd86c21adb527af61222611,
40099,,Concord St & Kansas St,Across from N,44.926038,-93.06676,,http://www.metrotransit.org/NexTripBadge.aspx?stopnumber=40099,0,1.0,73017,187931004,c2266fb1f2ce8b9bd25a72f20bc1c522,
40113,,River Park Plaza & Xfinity,Near side E,44.942953,-93.084018,,http://www.metrotransit.org/NexTripBadge.aspx?stopnumber=40113,0,1.0,40319,1800565818,0cb18ec90efb376ab42a07f2cc7b674a,
40126,,Robert St S & Plato Blvd,Far side S,44.937733,-93.082075,,http://www.metrotransit.org/NexTripBadge.aspx?stopnumber=40126,0,1.0,75318,652981846,f4266a81910189701fdb74ca183a22fd,
40127,,St Clair Ave & Pleasant Ave,Near side E,44.934065,-93.129363,,http://www.metrotransit.org/NexTripBadge.aspx?stopnumber=40127,0,1.0,58399,187892085,fb83b4f2cd360907befedfaf61081ef2,
40128,,Cesar Chavez St & Robert St / State St,Mid block E,44.93059,-93.079462,,http://www.metrotransit.org/NexTripBadge.aspx?stopnumber=40128,0,1.0,20280,3093399072,1dec9e9f4768ffcf7bb04fa833526c2c,
41241,,Minnesota St & 7th Place / 7th St,Mid block N,44.948678,-93.093783,,http://www.metrotransit.org/NexTripBadge.aspx?stopnumber=41241,0,1.0,41623,187858022,f83afe8007accd79cfa22542184505af,
41393,,Rice St & State Bldg G Entrance,Near side N,44.952349,-93.105822,,http://www.metrotransit.org/NexTripBadge.aspx?stopnumber=41393,0,1.0,134498,695054738,5cbc63c6b139020f876f23b13f0f6b19,
41702,,Wacouta St & 9th St E,Near side S,44.952566,-93.089956,,http://www.metrotransit.org/NexTripBadge.aspx?stopnumber=41702,0,1.0,79139,187946605,569c0a45c78cc157c044c78c90563d3c,
41971,,Thomas Ave & Dale St,Far side E,44.959281,-93.126189,,http://www.metrotransit.org/NexTripBadge.aspx?stopnumber=41971,0,1.0,7112,944811132,b6fc9c7bf1a4a0968f54a1207e422671,
42007,,Wabasha St & Torre de San Miguel,Across from S,44.934639,-93.084821,,http://www.metrotransit.org/NexTripBadge.aspx?stopnumber=42007,0,1.0,67033,187912752,2f1d80f3705f455936e5be126fb1718e,
42117,,Chester St & #261,Far side S,44.938489,-93.072021,,http://www.metrotransit.org/NexTripBadge.aspx?stopnumber=42117,0,2.0,151640,507951641,badab469f6972972079d8abcea12deb2,
42118,,Lafayette Rd E & #341 - Front,Near side N,44.936532,-93.073158,,http://www.metrotransit.org/NexTripBadge.aspx?stopnumber=42118,0,1.0,151640,507951641,badab469f6972972079d8abcea12deb2,
42339,,Grove St & LaFayette Rd,Near side E,44.955692,-93.084991,,http://www.metrotransit.org/NexTripBadge.aspx?stopnumber=42339,0,1.0,160240,1200569431,9f67eb891fd09632b5401cb6ca5a2a0d,
43281,,Wall St & 7th St,Near side N,44.951355,-93.087222,,http://www.metrotransit.org/NexTripBadge.aspx?stopnumber=43281,0,1.0,46668,187867607,e277494dbe91f4ca6ee2b102f0c5967b,
43282,,Wall St & 7th St / 6th St,Mid block S,44.950955,-93.087013,,http://www.metrotransit.org/NexTripBadge.aspx?stopnumber=43282,0,1.0,46666,187867604,ba5d8492794497f86393fe71d65dbbeb,
43495,,Chester St & #341 - Rear,Near side S,44.937117,-93.071996,,http://www.metrotransit.org/NexTripBadge.aspx?stopnumber=43495,0,2.0,151640,507951641,badab469f6972972079d8abcea12deb2,
43770,,Westminster St & Arlington Ave,Near side S,44.984649,-93.086314,,http://www.metrotransit.org/NexTripBadge.aspx?stopnumber=43770,0,1.0,73921,187933799,307ef918116c8da937b4f6dbf058313c,
45127,,Wabasha St & Fillmore (Water W),Near side N,44.93938,-93.089356,,http://www.metrotransit.org/NexTripBadge.aspx?stopnumber=45127,0,1.0,57979,187891386,2ed244b958333c62b4d9eca6113c0e95,
45128,,Wabasha St & Water St W (Fillmore),Near side S,44.939484,-93.089611,,http://www.metrotransit.org/NexTripBadge.aspx?stopnumber=45128,0,1.0,57979,187891386,2ed244b958333c62b4d9eca6113c0e95,
46506,,Humboldt Ave & Robie St,Near side S,44.930624,-93.085267,,http://www.metrotransit.org/NexTripBadge.aspx?stopnumber=46506,0,1.0,12540,1713446284,b82d39bcaf232449b71cb8054f784ca6,
46948,,6th St - Node & Broadway St,Far side W,44.950799,-93.08636,,http://www.metrotransit.org/NexTripBadge.aspx?stopnumber=46948,0,2.0,84899,1888749444,8637c3a5fb1c4406a1a53ad815f2c45f,
47040,,Wabasha St & Vision Loss Resources,Across from S,44.936084,-93.08679,,http://www.metrotransit.org/NexTripBadge.aspx?stopnumber=47040,0,1.0,5149,652245100,55d02fa3aa91908ecba6798814bd9d73,
47041,,7th St W & Michigan St,Near side N,44.934856,-93.116107,,http://www.metrotransit.org/NexTripBadge.aspx?stopnumber=47041,0,1.0,66300,187910567,635b986cc7676a3b4c9228c03cda6483,
47044,,Concord St & Hwy 52 Ramp,Far side W,44.927184,-93.069141,,http://www.metrotransit.org/NexTripBadge.aspx?stopnumber=47044,0,1.0,35382,187845810,d85bf77f5859875c7621b7edaee5b177,
47046,,Concord St & Hwy 52 Ramp,Near side E,44.926956,-93.069013,,http://www.metrotransit.org/NexTripBadge.aspx?stopnumber=47046,0,1.0,35382,187845810,d85bf77f5859875c7621b7edaee5b177,
47356,,Jackson St & 12th St,Near side S,44.953747,-93.095059,,http://www.metrotransit.org/NexTripBadge.aspx?stopnumber=47356,0,1.0,27316,695328260,09103ee7c11147521a87c2f6822fd123,
47377,,Wabasha St & 6th St - Arrive,Near side N,44.946427,-93.095085,,http://www.metrotransit.org/NexTripBadge.aspx?stopnumber=47377,0,1.0,45691,187865924,2baaa1d442e4aff56dafeeb0c1b4661f,
47444,,Como Ave & Galtier St,Near side E,44.961504,-93.110677,,http://www.metrotransit.org/NexTripBadge.aspx?stopnumber=47444,0,1.0,47969,187869887,e808327c85602dabb2d19e2629971401,
47485,,7th St W & 5th St / Kellogg Blvd,Mid block W,44.945485,-93.102293,,http://www.metrotransit.org/NexTripBadge.aspx?stopnumber=47485,0,1.0,19074,772371521,2cf6b7431e509313f29229930b4f0a6c,
47586,,7th St E & Lafayette Rd / John St,Mid block W,44.953342,-93.083863,,http://www.metrotransit.org/NexTripBadge.aspx?stopnumber=47586,0,1.0,58303,187891937,08a0145ddb61356c0daf26d6119a6e91,
47785,,Wall St & 5th St / 6th St,Mid block N,44.950302,-93.086204,,http://www.metrotransit.org/NexTripBadge.aspx?stopnumber=47785,0,1.0,46666,187867604,ba5d8492794497f86393fe71d65dbbeb,
47816,,Fillmore Ave (Bayfield) & Plato Blvd,Near side E,44.94253300000001,-93.072265,,http://www.metrotransit.org/NexTripBadge.aspx?stopnumber=47816,0,2.0,134916,685094548,445a8914353bfea0f078e445b5f66d24,
48302,,5th St & Wabasha St / Cedar St,Mid block E,44.945934,-93.093821,,http://www.metrotransit.org/NexTripBadge.aspx?stopnumber=48302,0,1.0,70839,187923583,dcd6d80e71b7c32c9fb131c172c01964,
48338,,Broadway St - NODE & 5th St,Near side N,44.950333,-93.085165,,http://www.metrotransit.org/NexTripBadge.aspx?stopnumber=48338,0,2.0,150855,2053025178,c23797607a0dcb04bc511a6dd873c580,
49112,,Robert St & 6th St,Near side N,44.94818,-93.091483,,http://www.metrotransit.org/NexTripBadge.aspx?stopnumber=49112,0,1.0,62146,187899923,3281286730ef42e4934f3a579cb4be06,
49397,,5th St & Minnesota St,Far side E,44.946915,-93.091744,,http://www.metrotransit.org/NexTripBadge.aspx?stopnumber=49397,0,1.0,41990,187858776,6678b5fc10f2a7f70492c9450d5a9482,
49398,,5th St & Washington,Mid block E,44.9452,-93.098877,,http://www.metrotransit.org/NexTripBadge.aspx?stopnumber=49398,0,1.0,44250,187863167,07e3c5427be0f03b4c3873381c0fdc0b,
49450,,11th St W & St Peter St,Far side E,44.95005,-93.100018,,http://www.metrotransit.org/NexTripBadge.aspx?stopnumber=49450,0,1.0,52718,187879322,f39555c758757774e561b30271d80f18,
49685,,Brainerd Ave & Burr St,Near side E,44.979081,-93.079993,,http://www.metrotransit.org/NexTripBadge.aspx?stopnumber=49685,0,1.0,57270,187889999,de8e89c45dca64216bad7173938badaa,
49686,,Brainerd Ave & Jessie St,Near side E,44.98029,-93.077497,,http://www.metrotransit.org/NexTripBadge.aspx?stopnumber=49686,0,1.0,161723,2106546489,208c0e309b155f59358ec2e0d790c0bf,
49687,,Brainerd Ave & Edgerton St,Near side E,44.980895,-93.076261,,http://www.metrotransit.org/NexTripBadge.aspx?stopnumber=49687,0,1.0,57273,187890005,26c826379e3bdc4285ebb911a2c0e18a,
49696,,Hawthorne Ave & Westminster St,Near side W,44.978322,-93.0861,,http://www.metrotransit.org/NexTripBadge.aspx?stopnumber=49696,0,2.0,62105,187899823,01c432f8107b8d68ca4925bd53f09c21,
49699,,Arkwright St & Maryland Ave,Near side S,44.977441,-93.083744,,http://www.metrotransit.org/NexTripBadge.aspx?stopnumber=49699,0,1.0,47500,187869118,b29e166fac7def57dbfec3c7e15c18e1,
49892,,Como Ave & Western Ave,Far side E,44.964336,-93.115877,,http://www.metrotransit.org/NexTripBadge.aspx?stopnumber=49892,0,1.0,83609,187956874,094e9e1c9e284d024c89b240b4e12ee7,
49895,,Como Ave & Rice St,Far side W,44.959214,-93.106395,,http://www.metrotransit.org/NexTripBadge.aspx?stopnumber=49895,0,1.0,93192,1551122443,df8836752bbc2d74460ab9a3ed53380c,
49935,,Robert St & 5th St,Near side N,44.947371,-93.09069,,http://www.metrotransit.org/NexTripBadge.aspx?stopnumber=49935,0,1.0,62145,187899922,c9054f37d415ba35a8d42b57c54608ea,
49936,,Robert St & 7th Place,Far side N,44.949112,-93.0924,,http://www.metrotransit.org/NexTripBadge.aspx?stopnumber=49936,0,1.0,41625,187858024,e04ad74fd1004629e59772f260dd8290,
49950,,Robert St & 9th St,Far side S,44.950346,-93.093778,,http://www.metrotransit.org/NexTripBadge.aspx?stopnumber=49950,0,1.0,62150,187899927,64995a172bb4c01054c9a2d88fd5de00,
49951,,Robert St & 7th Place,Near side S,44.949049,-93.092532,,http://www.metrotransit.org/NexTripBadge.aspx?stopnumber=49951,0,1.0,41625,187858024,e04ad74fd1004629e59772f260dd8290,
49952,,Robert St & 6th St / 5th St,Mid block S,44.947744,-93.091251,,http://www.metrotransit.org/NexTripBadge.aspx?stopnumber=49952,0,1.0,62145,187899922,c9054f37d415ba35a8d42b57c54608ea,
49993,,Robert St & 10th St E,Near side S,44.95139,-93.094773,,http://www.metrotransit.org/NexTripBadge.aspx?stopnumber=49993,0,1.0,55397,187886069,4470fc85973f64fd84761d683900fc44,
49995,,Robert St & Kellogg Blvd,Near side S,44.945987,-93.089559,,http://www.metrotransit.org/NexTripBadge.aspx?stopnumber=49995,0,1.0,92326,517224710,ca597b96ce3218efd7e48b90629923ae,
50151,,4th St & Cedar St / Wabasha St,Mid block W,44.945199,-93.093101,,http://www.metrotransit.org/NexTripBadge.aspx?stopnumber=50151,0,1.0,45946,187866334,aacd069688c66091114cb1f179ecebc8,
50184,,5th St & Minnesota St - Arrive,Near side E,44.94675,-93.092095,,http://www.metrotransit.org/NexTripBadge.aspx?stopnumber=50184,0,1.0,41990,187858776,6678b5fc10f2a7f70492c9450d5a9482,
50185,,6th St & Cedar St - Arrive,Near side W,44.94719600000001,-93.093916,,http://www.metrotransit.org/NexTripBadge.aspx?stopnumber=50185,0,1.0,70841,187923585,5a751dc1ad9a35231196a2db54111f86,
50190,,Robert St & 6th St - Arrive,Near side N,44.94818,-93.091483,,http://www.metrotransit.org/NexTripBadge.aspx?stopnumber=50190,0,1.0,62146,187899923,3281286730ef42e4934f3a579cb4be06,
50191,,Robert St & 6th St / 5th St - Arrive,Mid block S,44.947744,-93.091251,,http://www.metrotransit.org/NexTripBadge.aspx?stopnumber=50191,0,1.0,62145,187899922,c9054f37d415ba35a8d42b57c54608ea,
50211,,Cedar St & 5th St - Arrive,Far side S,44.94591,-93.092975,,http://www.metrotransit.org/NexTripBadge.aspx?stopnumber=50211,0,1.0,70839,187923583,dcd6d80e71b7c32c9fb131c172c01964,
50330,,Cayuga St & East Metro driveway,Far side E,44.966622,-93.088667,,http://www.metrotransit.org/NexTripBadge.aspx?stopnumber=50330,0,1.0,131218,2307229071,1d3e5e7f4d37089b04a2a7f180889d04,
50540,,Minnesota St & 9th St,Near side N,44.949692,-93.094727,,http://www.metrotransit.org/NexTripBadge.aspx?stopnumber=50540,0,1.0,41993,187858780,3c1fde3d0fdca746f521767bc5a69a4f,
50848,,Robert St & 9th St,Near side N,44.950467,-93.093701,,http://www.metrotransit.org/NexTripBadge.aspx?stopnumber=50848,0,1.0,62150,187899927,64995a172bb4c01054c9a2d88fd5de00,
51134,,Westminster St & Hawthorne Ave,Near side S,44.978429,-93.086293,,http://www.metrotransit.org/NexTripBadge.aspx?stopnumber=51134,0,1.0,62105,187899823,01c432f8107b8d68ca4925bd53f09c21,
51199,,Earl St & Pacific St,Near side N,44.951213,-93.055653,,http://www.metrotransit.org/NexTripBadge.aspx?stopnumber=51199,0,1.0,59015,187893395,c16a9cde25b58d64492b4a9f3b131a3a,
51272,,Chester St & Plato Blvd,Far side S,44.940824,-93.072816,,http://www.metrotransit.org/NexTripBadge.aspx?stopnumber=51272,0,2.0,75344,652981906,da9f0fee05c19a9e3b8c1b987ec12d31,
51611,,Robert St & 11th St,Near side N,44.952139,-93.095307,,http://www.metrotransit.org/NexTripBadge.aspx?stopnumber=51611,0,1.0,56120,187887699,1c9c5e5172d7bd1811281506a8c57bc4,
52097,,6th St & Minnesota St,Near side W,44.947726,-93.092796,,http://www.metrotransit.org/NexTripBadge.aspx?stopnumber=52097,0,1.0,41991,187858777,c97b7d4636d88b8dd85cfb12b14c0ad3,
52329,,10th St E & Cedar St,Near side W,44.950272,-93.096985,,http://www.metrotransit.org/NexTripBadge.aspx?stopnumber=52329,0,1.0,64287,1665348874,7d42693964661522a2b7a63d25003fef,
52480,,7th St W & Superior St,Near side S,44.935619,-93.115352,,http://www.metrotransit.org/NexTripBadge.aspx?stopnumber=52480,0,1.0,56721,187888761,0c917a73ac10241c74828da09de1d80d,
52758,,Smith Ave & 5th St W,Near side E,44.946385,-93.102509,,http://www.metrotransit.org/NexTripBadge.aspx?stopnumber=52758,0,1.0,19077,772371528,a2ef0b1c093764e65ba61a6738eac88d,
52759,,Smith Ave & Ramp Entrance,Near side W,44.94622,-93.10292,,http://www.metrotransit.org/NexTripBadge.aspx?stopnumber=52759,0,1.0,19077,772371528,a2ef0b1c093764e65ba61a6738eac88d,
52760,,Smith Ave & Ramp Exit / Kellogg Blvd,Mid block W,44.945585,-93.103737,,http://www.metrotransit.org/NexTripBadge.aspx?stopnumber=52760,0,1.0,91685,517223164,d4a19fe8fdaa79188eac81aec9f3666d,
52761,,Smith Ramp & Layover Node,Near side S,44.946184,-93.103322,,http://www.metrotransit.org/NexTripBadge.aspx?stopnumber=52761,0,1.0,38696,2095737153,a25be43bb3e25b71d89af7c38fc610f7,
52858,,University Ave & Pine St,Far side W,44.957906,-93.08896,,http://www.metrotransit.org/NexTripBadge.aspx?stopnumber=52858,0,1.0,67918,187915041,2adcd2ca7e97457c822df840a74731d1,
52915,,Rice St & Hatch Ave,Near side S,44.971232,-93.106034,,http://www.metrotransit.org/NexTripBadge.aspx?stopnumber=52915,0,1.0,82060,187953353,27c9cada69e9331425306e4665e541c0,
53785,,Westminster St & Cayuga St W,Near side S,44.966288,-93.085602,,http://www.metrotransit.org/NexTripBadge.aspx?stopnumber=53785,0,1.0,3261,493882338,b6ee5e5a4adca2f379b20fe7ee7ca77d,
53892,,6th St E & Wall St,Far side W,44.950502,-93.086954,,http://www.metrotransit.org/NexTripBadge.aspx?stopnumber=53892,0,1.0,46666,187867604,ba5d8492794497f86393fe71d65dbbeb,
56010,,Lexington Pkwy Station,Near side E,44.95568,-93.146275,,http://www.metrotransit.org/NexTripBadge.aspx?stopnumber=56010,0,1.0,171260,rail64,,
56011,,Victoria St Station,Near side E,44.955695,-93.136305,,http://www.metrotransit.org/NexTripBadge.aspx?stopnumber=56011,0,1.0,171261,rail65,,
56012,,Dale St Station,Near side E,44.955682,-93.125945,,http://www.metrotransit.org/NexTripBadge.aspx?stopnumber=56012,0,1.0,171262,rail66,,
56013,,Western Ave Station,Near side E,44.955725,-93.11596,,http://www.metrotransit.org/NexTripBadge.aspx?stopnumber=56013,0,1.0,171263,rail67,,
56014,,Capitol / Rice St Station,Near side E,44.955736,-93.105322,,http://www.metrotransit.org/NexTripBadge.aspx?stopnumber=56014,0,1.0,171264,rail68,,
56015,,Robert St Station,Near side E,44.954041,-93.097459,,http://www.metrotransit.org/NexTripBadge.aspx?stopnumber=56015,0,1.0,171265,rail69,,
56016,,10th St Station,Near side S,44.950513,-93.097507,,http://www.metrotransit.org/NexTripBadge.aspx?stopnumber=56016,0,1.0,171266,rail70,,
56017,,Central Station,Near side S,44.946097,-93.092446,,http://www.metrotransit.org/NexTripBadge.aspx?stopnumber=56017,0,1.0,171267,rail71,,
56018,,Union Depot Station,Near side E,44.948263,-93.086677,,http://www.metrotransit.org/NexTripBadge.aspx?stopnumber=56018,0,1.0,171268,rail72,,
56026,,Union Depot Station,Near side W,44.948165,-93.086889,,http://www.metrotransit.org/NexTripBadge.aspx?stopnumber=56026,0,1.0,171269,rail73,,
56027,,Central Station,Near side N,44.94607,-93.092202,,http://www.metrotransit.org/NexTripBadge.aspx?stopnumber=56027,0,1.0,171270,rail74,,
56028,,10th St Station,Near side N,44.950568,-93.097372,,http://www.metrotransit.org/NexTripBadge.aspx?stopnumber=56028,0,1.0,171271,rail75,,
56029,,Robert St Station,Near side W,44.954168,-93.097548,,http://www.metrotransit.org/NexTripBadge.aspx?stopnumber=56029,0,1.0,171272,rail76,,
56030,,Capitol / Rice St Station,Near side W,44.955938,-93.105376,,http://www.metrotransit.org/NexTripBadge.aspx?stopnumber=56030,0,1.0,171273,rail77,,
56031,,Western Ave Station,Near side W,44.955837,-93.116366,,http://www.metrotransit.org/NexTripBadge.aspx?stopnumber=56031,0,1.0,171274,rail78,,
56032,,Dale St Station,Near side W,44.955761,-93.126602,,http://www.metrotransit.org/NexTripBadge.aspx?stopnumber=56032,0,1.0,171275,rail79,,
56033,,Victoria St Station,Near side W,44.955774,-93.13668,,http://www.metrotransit.org/NexTripBadge.aspx?stopnumber=56033,0,1.0,171276,rail80,,
56099,,Union Depot Station & Terminal,Near side W,44.947217,-93.084828,,http://www.metrotransit.org/NexTripBadge.aspx?stopnumber=56099,0,1.0,45983,187866380,d08130175995d264503d13accc20a352,
56100,,Union Depot & Gate A1,Near side E,44.947131,-93.085709,,http://www.metrotransit.org/NexTripBadge.aspx?stopnumber=56100,0,1.0,45983,187866380,d08130175995d264503d13accc20a352,
56139,,Westminster St & Old Cayuga St E,Near side N,44.967227,-93.085449,,http://www.metrotransit.org/NexTripBadge.aspx?stopnumber=56139,0,1.0,68075,187915382,1b1458fbd4033eb108b7d71b33ea6dcb,
56142,,Westminster St & York Ave,Near side N,44.968012,-93.085427,,http://www.metrotransit.org/NexTripBadge.aspx?stopnumber=56142,0,1.0,43520,187861805,8e75b4cf70e30e88e3c4423b3316d8f9,
56143,,Westminster St & York Ave,Near side S,44.968195,-93.08557,,http://www.metrotransit.org/NexTripBadge.aspx?stopnumber=56143,0,1.0,43520,187861805,8e75b4cf70e30e88e3c4423b3316d8f9,
56146,,Westminster St &  Old Cayuga St E,Across from S,44.967408,-93.085592,,http://www.metrotransit.org/NexTripBadge.aspx?stopnumber=56146,0,1.0,68075,187915382,1b1458fbd4033eb108b7d71b33ea6dcb,
56147,,Wabasha St & 10th St E,Near side N,44.949837,-93.098344,,http://www.metrotransit.org/NexTripBadge.aspx?stopnumber=56147,0,1.0,51941,187877905,a68ebd17e839c6382beaff6158b46e5f,
56148,,Wabasha St & 10th St E,Far side N,44.950084,-93.09858,,http://www.metrotransit.org/NexTripBadge.aspx?stopnumber=56148,0,1.0,51941,187877905,a68ebd17e839c6382beaff6158b46e5f,
56150,,Westminster St & Case Ave,Near side N,44.970015,-93.085418,,http://www.metrotransit.org/NexTripBadge.aspx?stopnumber=56150,0,1.0,73923,187933804,43f9e3c8b9a65126bcdbee19a256b299,
56161,,Marion St & Fuller Ave,Near side S,44.954091,-93.109492,,http://www.metrotransit.org/NexTripBadge.aspx?stopnumber=56161,0,1.0,118039,516753734,97431f573db43b45e684f3db201fd635,
56162,,John Ireland Blvd & Kellogg Blvd,Far side N,44.949437,-93.106724,,http://www.metrotransit.org/NexTripBadge.aspx?stopnumber=56162,0,1.0,133190,695049795,19f4dd9bc77a7ce4d3b9eb3ff72b18c8,
56163,,John Ireland Blvd & Rice St,Far side N,44.951222,-93.105232,,http://www.metrotransit.org/NexTripBadge.aspx?stopnumber=56163,0,1.0,134494,695054725,ed14aa976c12a1f91b217e77689370ef,
56164,,12th St W & John Ireland Blvd,Near side W,44.951319,-93.104096,,http://www.metrotransit.org/NexTripBadge.aspx?stopnumber=56164,0,1.0,4219,954746986,9a057e241974a5839b6bf9c805892197,
56165,,John Ireland Blvd & Rice St,Far side S,44.951164,-93.105734,,http://www.metrotransit.org/NexTripBadge.aspx?stopnumber=56165,0,1.0,134496,695054729,c86b80e36f3f172cbe6f1b7834cbef9a,
56166,,John Ireland Blvd & Kellogg Blvd,Near side S,44.949283,-93.107284,,http://www.metrotransit.org/NexTripBadge.aspx?stopnumber=56166,0,1.0,133187,695049792,9f01d453010a328b832f61f5035afd12,
56167,,Marion St & Fuller Ave,Across from N,44.953921,-93.109113,,http://www.metrotransit.org/NexTripBadge.aspx?stopnumber=56167,0,1.0,118218,516754093,171f727686988f638a740a3e847e3f40,
56326,,University Ave E & Valley Apt # 261,Near side E,44.957545,-93.09343,,http://www.metrotransit.org/NexTripBadge.aspx?stopnumber=56326,0,1.0,160271,1200569516,5d0f27044a08d0173ff1010d5394f772,
56327,,University Ave E & Valley Apt # 261,Far side W,44.957725,-93.093546,,http://www.metrotransit.org/NexTripBadge.aspx?stopnumber=56327,0,1.0,160244,1200569437,6c4ee4a073e7043f1a53fd6953b7ef0c,
56328,,L’Orient St & Mount Airy St,Across from N,44.958824,-93.091202,,http://www.metrotransit.org/NexTripBadge.aspx?stopnumber=56328,0,1.0,70157,187921518,df0d3802b8da1e4d4000705641291f24,
56393,,L’Orient St & Cayuga St,Far side S,44.966666,-93.091034,,http://www.metrotransit.org/NexTripBadge.aspx?stopnumber=56393,0,1.0,131217,2307229070,777f5e7efdc922864c58ce02e8af0c6a,
56396,,Cayuga St & L'Orient St,Far side E,44.966772,-93.090276,,http://www.metrotransit.org/NexTripBadge.aspx?stopnumber=56396,0,1.0,131216,2307229069,1f80e4800169ad805e449dd7c186159c,
56545,,Mississippi St & University Ave E,Near side N,44.957725,-93.089983,,http://www.metrotransit.org/NexTripBadge.aspx?stopnumber=56545,0,1.0,160280,1200569557,9614f9e9dcceb4ed3c03620d1fba1cbe,
56870,,Selby Ave & Victoria / Fisk St,Far side E,44.946548,-93.135681,,http://www.metrotransit.org/NexTripBadge.aspx?stopnumber=56870,0,1.0,51814,187877708,24835d98025cbe3e54b30a44411c1df4,
80004,,Selby Ave & Dale St,Far side W,44.946656,-93.126785,,http://www.metrotransit.org/NexTripBadge.aspx?stopnumber=80004,0,2.0,44190,187863051,5856d5ce11426c640966a11da4c30ecd,
826,,Como Ave & Marion St,Far side W,44.960452,-93.108607,,http://www.metrotransit.org/NexTripBadge.aspx?stopnumber=826,0,1.0,57530,187890615,df8836752bbc2d74460ab9a3ed53380c,
827,,Como Ave & Galtier St,Across from W,44.961474,-93.110383,,http://www.metrotransit.org/NexTripBadge.aspx?stopnumber=827,0,1.0,47969,187869887,e808327c85602dabb2d19e2629971401,
828,,Como Ave & Van Buren Ave,Far side W,44.962402,-93.112062,,http://www.metrotransit.org/NexTripBadge.aspx?stopnumber=828,0,1.0,74090,187934213,39865625ad475075f2d97a2e9ed86990,
831,,Como Ave & Western Ave,Near side W,44.964486,-93.115908,,http://www.metrotransit.org/NexTripBadge.aspx?stopnumber=831,0,1.0,83609,187956874,094e9e1c9e284d024c89b240b4e12ee7,
832,,Western Ave & Atwater St,Near side N,44.966423,-93.116055,,http://www.metrotransit.org/NexTripBadge.aspx?stopnumber=832,0,1.0,72216,187927973,71e3dd3dcb1798fcfc73620117d3b62b,
834,,Western Ave & Burgess St,Near side N,44.968292,-93.116051,,http://www.metrotransit.org/NexTripBadge.aspx?stopnumber=834,0,1.0,82196,187953677,0b3ba32026630a1330dee03e2f0254c4,
836,,Western Ave & Front Ave,Near side N,44.970059,-93.116051,,http://www.metrotransit.org/NexTripBadge.aspx?stopnumber=836,0,1.0,83611,187956876,71fdf09b7cf658c99255463a036c9a70,
837,,Front Ave & Arundel St,Near side W,44.97024,-93.118645,,http://www.metrotransit.org/NexTripBadge.aspx?stopnumber=837,0,1.0,48532,187871015,9c7390995f51bc0bb962cb2f17180c01,
838,,Front Ave & Mackubin St,Near side W,44.970235,-93.121045,,http://www.metrotransit.org/NexTripBadge.aspx?stopnumber=838,0,1.0,71975,187927190,d82c96fc17be65674e5a20493394029f,
839,,Front Ave & Kent St,Near side W,44.970229,-93.123623,,http://www.metrotransit.org/NexTripBadge.aspx?stopnumber=839,0,1.0,71430,187925233,c591b27f23f09f224a4e407df6bc88b4,
840,,Front Ave & Dale St,Near side W,44.970243,-93.12602,,http://www.metrotransit.org/NexTripBadge.aspx?stopnumber=840,0,1.0,66415,187910891,7f012eb7d85749e1a3e08c2ce4deacaa,
842,,Front Ave & St Albans St,Near side W,44.970226,-93.12871,,http://www.metrotransit.org/NexTripBadge.aspx?stopnumber=842,0,1.0,7078,944811053,18f077885c845c1ad627c846ac308c1c,
843,,Front Ave & Grotto St,Near side W,44.970232,-93.131284,,http://www.metrotransit.org/NexTripBadge.aspx?stopnumber=843,0,1.0,80043,187948558,171dee85bb68633291cfff3d91a2963b,
845,,Front Ave & Avon St,Near side W,44.970235,-93.13329,,http://www.metrotransit.org/NexTripBadge.aspx?stopnumber=845,0,1.0,66380,187910783,9fe1533b99fe47e4d1e39564782025cd,
847,,Front Ave & Barrett St,Near side W,44.970241,-93.135304,,http://www.metrotransit.org/NexTripBadge.aspx?stopnumber=847,0,1.0,47239,187868713,fb4b39d88b931696ad3a58ec3bf1da1e,
849,,Front Ave & Milton St,Near side W,44.970246,-93.13743,,http://www.metrotransit.org/NexTripBadge.aspx?stopnumber=849,0,1.0,83737,187957079,89c224cb80c53da016fce5503baceb9e,
851,,Front Ave & Ryde St,Near side W,44.97025,-93.139363,,http://www.metrotransit.org/NexTripBadge.aspx?stopnumber=851,0,1.0,67198,187913095,c325e53b3f28c4f99713bd25fb71a968,
852,,Front Ave & Chatsworth St,Near side W,44.970255,-93.141342,,http://www.metrotransit.org/NexTripBadge.aspx?stopnumber=852,0,1.0,66544,187911330,5281e09caa4dbfefd50e5d36643ae04d,
948,,Front Ave & Ryde St,Across from E,44.970145,-93.139637,,http://www.metrotransit.org/NexTripBadge.aspx?stopnumber=948,0,1.0,67198,187913095,c325e53b3f28c4f99713bd25fb71a968,
950,,Front Ave & Milton St,Across from E,44.970142,-93.137658,,http://www.metrotransit.org/NexTripBadge.aspx?stopnumber=950,0,1.0,83737,187957079,89c224cb80c53da016fce5503baceb9e,
952,,Front Ave & Barrett St,Near side E,44.970136,-93.13557,,http://www.metrotransit.org/NexTripBadge.aspx?stopnumber=952,0,1.0,47239,187868713,fb4b39d88b931696ad3a58ec3bf1da1e,
954,,Front Ave & Avon St,Across from E,44.97013,-93.133522,,http://www.metrotransit.org/NexTripBadge.aspx?stopnumber=954,0,1.0,66380,187910783,9fe1533b99fe47e4d1e39564782025cd,
956,,Front Ave & Grotto St,Across from E,44.97012700000001,-93.131547,,http://www.metrotransit.org/NexTripBadge.aspx?stopnumber=956,0,1.0,80043,187948558,171dee85bb68633291cfff3d91a2963b,
957,,Front Ave & St Albans St,Near side E,44.970122,-93.129119,,http://www.metrotransit.org/NexTripBadge.aspx?stopnumber=957,0,1.0,80043,187948558,171dee85bb68633291cfff3d91a2963b,
958,,Front Ave & Dale St,Near side E,44.970141,-93.126518,,http://www.metrotransit.org/NexTripBadge.aspx?stopnumber=958,0,1.0,7078,944811053,18f077885c845c1ad627c846ac308c1c,
959,,Front Ave & Kent St,Near side E,44.97012700000001,-93.124044,,http://www.metrotransit.org/NexTripBadge.aspx?stopnumber=959,0,2.0,71430,187925233,c591b27f23f09f224a4e407df6bc88b4,
960,,Front Ave & Mackubin St,Near side E,44.97013,-93.121373,,http://www.metrotransit.org/NexTripBadge.aspx?stopnumber=960,0,1.0,71975,187927190,d82c96fc17be65674e5a20493394029f,
961,,Front Ave & Arundel St,Near side E,44.970135,-93.119012,,http://www.metrotransit.org/NexTripBadge.aspx?stopnumber=961,0,1.0,48532,187871015,9c7390995f51bc0bb962cb2f17180c01,
962,,Front Ave & Western Ave,Near side E,44.970144,-93.116287,,http://www.metrotransit.org/NexTripBadge.aspx?stopnumber=962,0,1.0,83611,187956876,71fdf09b7cf658c99255463a036c9a70,
964,,Western Ave & Burgess St,Near side S,44.96847800000001,-93.116198,,http://www.metrotransit.org/NexTripBadge.aspx?stopnumber=964,0,1.0,82196,187953677,0b3ba32026630a1330dee03e2f0254c4,
966,,Western Ave & Atwater St,Near side S,44.966711,-93.116202,,http://www.metrotransit.org/NexTripBadge.aspx?stopnumber=966,0,1.0,72216,187927973,71e3dd3dcb1798fcfc73620117d3b62b,
970,,Como Ave & Van Buren Ave,Near side E,44.962386,-93.112294,,http://www.metrotransit.org/NexTripBadge.aspx?stopnumber=970,0,1.0,74090,187934213,39865625ad475075f2d97a2e9ed86990,
972,,Como Ave & Marion St,Near side E,44.96037800000001,-93.108715,,http://www.metrotransit.org/NexTripBadge.aspx?stopnumber=972,0,1.0,57530,187890615,df8836752bbc2d74460ab9a3ed53380c,
9729,,Concord St & Annapolis St,Across from N,44.919871,-93.060053,,http://www.metrotransit.org/NexTripBadge.aspx?stopnumber=9729,0,2.0,50577,653442637,96bd7ed9c3346b9f3decf961a3d40540,
973,,Como Ave & Rice St,Near side E,44.958951,-93.106089,,http://www.metrotransit.org/NexTripBadge.aspx?stopnumber=973,0,1.0,82056,187953343,6cc2469729fa8734335e9053ab9ba811,
9731,,Concord St & Belvidere St,Across from N,44.922095,-93.062291,,http://www.metrotransit.org/NexTripBadge.aspx?stopnumber=9731,0,1.0,65468,187908293,e9e9e01dc9fe25f53f56c98c638c4bc5,
9732,,Concord St & Curtice St,Across from N,44.922989,-93.06303,,http://www.metrotransit.org/NexTripBadge.aspx?stopnumber=9732,0,1.0,59324,187893988,64d877804081c50be190c4f65e8018a1,
9733,,Concord St & Page St,Across from N,44.924832,-93.064777,,http://www.metrotransit.org/NexTripBadge.aspx?stopnumber=9733,0,1.0,46298,187866939,31e054fa445581e57becad32e5de0fad,
9736,,Cesar Chavez St & Bancroft Ave,Near side W,44.928452,-93.073066,,http://www.metrotransit.org/NexTripBadge.aspx?stopnumber=9736,0,1.0,50291,187874284,19f4dd39177ae8afa146824d7a990775,
9738,,Cesar Chavez St & Ada St,Near side W,44.92951400000001,-93.076668,,http://www.metrotransit.org/NexTripBadge.aspx?stopnumber=9738,0,1.0,73016,187931000,76337cafa350f64fe6d48d50cea4722e,
974,,Rice St & Charles Ave,Near side S,44.957691,-93.106017,,http://www.metrotransit.org/NexTripBadge.aspx?stopnumber=974,0,1.0,78303,187945139,c473c67588659c2b33420e9f604f4a40,
975,,Rice St & University Ave,Near side S,44.95596,-93.106029,,http://www.metrotransit.org/NexTripBadge.aspx?stopnumber=975,0,1.0,134504,695054748,5ed9d6acf39819bd990643adc50d7f42,
00792,792,5 St at Minnesota St SW corner,,44.946755,-93.092074,,,0,,41990,187858776,6678b5fc10f2a7f70492c9450d5a9482,
00793,793,5 St at Robert St/Jackson St S corner,,44.947739,-93.089976,,,0,,39430,187854528,3bb845df305e459262af05a3d0b8cb71,
00795,795,5 St at Sibley St/Wacouta St S corner,,44.94896,-93.087473,,,0,,76167,187940544,29567c47faed11eaac7a0ccc16aa3bd3,
00801,801,6 St at Sibley St NW corner,,44.949505,-93.089038,,,0,,68609,187916875,f5ee487b961af6557e7062eda25fdca6,
00802,802,6 St at Jackson St/Robert St N corner,,44.94857800000001,-93.090998,,,0,,62146,187899923,3281286730ef42e4934f3a579cb4be06,
00803,803,6 St at Cedar St NE corner,,44.947201,-93.093897,,,0,,70841,187923585,5a751dc1ad9a35231196a2db54111f86,
00804,804,6 St at Wabasha St NW corner,,44.946488,-93.09537,,,0,,45691,187865924,2baaa1d442e4aff56dafeeb0c1b4661f,
00805,805,6 St at Washington St NE corner,,44.946144,-93.097246,,,0,,7688,498645316,9a501654cd0cc291f4feb95745432676,
00806,806,6 St at Washington St/W 7 St N corner,,44.946301,-93.098864,,,0,,100784,519336968,42a9a984b63718279f15555e14b9d8dc,
00817,817,5 St at W 7 St SE corner (drop of by request),,44.945485,-93.100718,,,0,,19072,772371510,0f9e1490b88cd0f7b9bfa27108dd8d12,
00818,818,5 St at Washington S corner (drop off by request),,44.945244,-93.099146,,,0,,44250,187863167,07e3c5427be0f03b4c3873381c0fdc0b,
00819,819,5 St at Market St SW corner (Rice Park),,44.945103,-93.097109,,,0,,44252,187863166,872010539448c365aaf877f2c520abb0,
00820,820,5 St at Wabasha St/Cedar St S corner,,44.945942,-93.093806,,,0,,70839,187923583,dcd6d80e71b7c32c9fb131c172c01964,
01451,1451,Smith Ave opp Smith Av Ramp (at 5th St),,44.946393,-93.102503,,,0,,19077,772371528,a2ef0b1c093764e65ba61a6738eac88d,
01452,1452,Smith Av Ramp (at Kellogg Blvd),,44.945774,-93.103472,,,0,,38696,2095737153,a25be43bb3e25b71d89af7c38fc610f7,
01579,1579,Broadway St at Farmer's Market W side,,44.949773,-93.084805,,,0,,150855,2053025178,c23797607a0dcb04bc511a6dd873c580,
01583,1583,Broadway St at 5th St SE corner (Farmer's Market),,44.950142,-93.084973,,,0,,150855,2053025178,c23797607a0dcb04bc511a6dd873c580,
01611,1611,St Paul Union Depot (dropoff),,44.947113,-93.085866,,,0,,45981,187866377,72536d59385b843b0ff608b6a1da58c4,
01612,1612,St Paul Union Depot Gate A,,44.94712,-93.085849,,,0,,45981,187866377,72536d59385b843b0ff608b6a1da58c4,
01753,1753,6 St at Wall St NW corner,,44.950612,-93.086734,,,0,,46666,187867604,ba5d8492794497f86393fe71d65dbbeb,
